id,code_postal,adresse,ville,latitude,longitude,prix_sp98,services_proposes,departement,code_departement,region,code_region
25115001,25115,Z.A. les Salines,Pouilley-les-Vignes,47.257413021458,5.9240872885659,2.015,"Toilettes publiques,Laverie,Relais colis,Station de gonflage,Location de véhicule,Piste poids lourds,Lavage automatique,Lavage manuel,Vente de gaz domestique (Butane, Propane),Bornes électriques,Vente d'additifs carburants,Automate CB 24/24,DAB (Distributeur automatique de billets)",Doubs,25,Bourgogne-Franche-Comté,27
92230008,92230,192 Avenue Louis Roche,Gennevilliers,48.9327,2.3044,2.099,,Hauts-de-Seine,92,Île-de-France,11
80570001,80570,Rue Joliot Curie,Dargnies,50.04475,1.52562,2.045,"Boutique alimentaire,Vente de gaz domestique (Butane, Propane),DAB (Distributeur automatique de billets)",Somme,80,Hauts-de-France,32
5100009,5100,RN 94,Montgenèvre,44.934,6.733,1.999,"Station de gonflage,Piste poids lourds,Bornes électriques,Automate CB 24/24",Hautes-Alpes,5,Provence-Alpes-Côte d'Azur,93
38230003,38230,Rue des Ardennes,Tignieu-Jameyzieu,45.745,5.183,1.96,Automate CB 24/24,Isère,38,Auvergne-Rhône-Alpes,84
56580001,56580,16 rue chateaubriand,Bréhan,48.061,-2.69,2.029,"Relais colis,Station de gonflage,Aire de camping-cars,Piste poids lourds,Lavage automatique,Lavage manuel,Vente de gaz domestique (Butane, Propane),Automate CB 24/24,DAB (Distributeur automatique de billets)",Morbihan,56,Bretagne,53
33114001,33114,Avenue du Médoc ZAC Eyrialis,Le Barp,44.623,-0.787,2.039,"Laverie,Relais colis,Boutique alimentaire,Boutique non alimentaire,Restauration à emporter,Restauration sur place,Vente de pétrole lampant,Station de gonflage,Location de véhicule,Lavage automatique,Lavage manuel,Services réparation / entretien,Vente de gaz domestique (Butane, Propane),Vente d'additifs carburants,Wifi",Gironde,33,Nouvelle-Aquitaine,75
58240003,58240,ROUTE NATIONALE 7 - LES BOULAISES,Chantenay-Saint-Imbert,46.7535171497,3.1406912128899998,1.99,,Nièvre,58,Bourgogne-Franche-Comté,27
95350002,95350,20 avenue robert schumann,Saint-Brice-sous-Forêt,49.00763,2.35163,2.011,"Vente de gaz domestique (Butane, Propane),Automate CB 24/24,DAB (Distributeur automatique de billets)",Val-d'Oise,95,Île-de-France,11
93380009,93380,"42, BOULEVARD JEAN MERMOZ",Saint-Denis,48.9660970452,2.36413094302,1.99,"Boutique alimentaire,Boutique non alimentaire,Station de gonflage,Carburant additivé,Vente de gaz domestique (Butane, Propane),DAB (Distributeur automatique de billets)",Seine-Saint-Denis,93,Île-de-France,11
40500002,40500,Route de Mont de Marsan,Saint-Sever,43.773,-0.567,2.019,"Station de gonflage,Location de véhicule,Piste poids lourds,Lavage manuel,Vente de gaz domestique (Butane, Propane),DAB (Distributeur automatique de billets)",Landes,40,Nouvelle-Aquitaine,75
89100001,89100,84 ROUTE DE MAILLOT,Sens,48.183,3.309,2.019,"Toilettes publiques,Location de véhicule,Vente de gaz domestique (Butane, Propane),Wifi,DAB (Distributeur automatique de billets)",Yonne,89,Bourgogne-Franche-Comté,27
34150003,34150,Route de Pézenas,Gignac,43.651,3.547,1.995,"Boutique alimentaire,Bar,Station de gonflage,Location de véhicule,Piste poids lourds,Lavage automatique,Lavage manuel,Vente de gaz domestique (Butane, Propane),Automate CB 24/24,DAB (Distributeur automatique de billets)",Hérault,34,Occitanie,76
6110002,6110,Boulevard Carnot,Le Cannet,43.572,7.016,2.029,"Toilettes publiques,Boutique alimentaire,Boutique non alimentaire,Restauration à emporter,Station de gonflage,Carburant additivé,Lavage automatique,Vente de gaz domestique (Butane, Propane)",Alpes-Maritimes,6,Provence-Alpes-Côte d'Azur,93
12270001,12270,ZA LE LAC,La Fouillade,44.240241001506,2.0328320468272003,1.989,"Laverie,Station de gonflage,Piste poids lourds,Lavage automatique,DAB (Distributeur automatique de billets)",Aveyron,12,Occitanie,76
59550001,59550,Boulevard des Résistants,Landrecies,50.124,3.689,2.074,"Station de gonflage,Vente de gaz domestique (Butane, Propane),DAB (Distributeur automatique de billets)",Nord,59,Hauts-de-France,32
77141003,77141,"RN4 route de Pecy, lieu dit Lugins",Vaudoy-en-Brie,48.6840914,3.0871627000000004,2.199,"Boutique alimentaire,Boutique non alimentaire,Restauration à emporter,Restauration sur place,Station de gonflage",Seine-et-Marne,77,Île-de-France,11
83590001,83590,"Le Murier, RD 97",Gonfaron,43.316,6.275,1.969,"Laverie,Station de gonflage,Lavage automatique,Vente de gaz domestique (Butane, Propane),Bornes électriques,Vente d'additifs carburants,Automate CB 24/24,DAB (Distributeur automatique de billets)",Var,83,Provence-Alpes-Côte d'Azur,93
83790001,83790,Lieu dit le Fege- RN97,Pignans,43.302,6.236,,"Laverie,Boutique alimentaire,Restauration à emporter,Vente de pétrole lampant,Location de véhicule,Vente de gaz domestique (Butane, Propane),Bornes électriques,Wifi,Automate CB 24/24",Var,83,Provence-Alpes-Côte d'Azur,93
74250003,74250,419 Route de la Vallée du Giffre,Fillinges,46.163834319677,6.3494833495813,2.119,"Toilettes publiques,Boutique alimentaire,Station de gonflage,Carburant additivé,Piste poids lourds,Lavage automatique,Lavage manuel,Vente de gaz domestique (Butane, Propane),DAB (Distributeur automatique de billets)",Haute-Savoie,74,Auvergne-Rhône-Alpes,84
34670001,34670,103 Avenue de la Biste,Baillargues,43.655,3.996,2.059,"Laverie,Station de gonflage,Piste poids lourds,Vente de gaz domestique (Butane, Propane),DAB (Distributeur automatique de billets)",Hérault,34,Occitanie,76
4170002,4170,RN 202,Saint-André-les-Alpes,43.967,6.507,1.99,"Boutique non alimentaire,Station de gonflage,Piste poids lourds,Services réparation / entretien,Vente de gaz domestique (Butane, Propane),Vente d'additifs carburants,Automate CB 24/24,DAB (Distributeur automatique de billets)",Alpes-de-Haute-Provence,4,Provence-Alpes-Côte d'Azur,93
60350003,60350,ROUTE DE SOISSONS- RN 31,Cuise-la-Motte,49.404,3.008,1.99,"Boutique alimentaire,Station de gonflage,Carburant additivé,Piste poids lourds,Vente de gaz domestique (Butane, Propane),Automate CB 24/24,DAB (Distributeur automatique de billets)",Oise,60,Hauts-de-France,32
33210008,33210,route de Bazas ZI dumes,Langon,44.542,-0.242,2.028,"Vente de gaz domestique (Butane, Propane)",Gironde,33,Nouvelle-Aquitaine,75
38570003,38570,LIEU DIT LE ROMPAY RD523,Le Cheylas,45.386,5.998,1.999,Automate CB 24/24,Isère,38,Auvergne-Rhône-Alpes,84
7290000,7290,Route d'Annonay,Satillieu,45.160197050871,4.6328811656225,,Automate CB 24/24,Ardèche,7,Auvergne-Rhône-Alpes,84
89330001,89330,Route de Villeneuve,Saint-Julien-du-Sault,48.036,3.305,2.065,"Vente de gaz domestique (Butane, Propane),DAB (Distributeur automatique de billets)",Yonne,89,Bourgogne-Franche-Comté,27
91200001,91200,180 ROUTE NATIONALE 7,Paray-Vieille-Poste,48.712,2.371,2.054,"Relais colis,Boutique alimentaire,Boutique non alimentaire,Restauration à emporter,Restauration sur place,Station de gonflage,Carburant additivé,Location de véhicule,Lavage automatique,Lavage manuel,Services réparation / entretien,Bornes électriques,Automate CB 24/24,DAB (Distributeur automatique de billets)",Essonne,91,Île-de-France,11
21400005,21400,Chaussée de l'Europe,Châtillon-sur-Seine,47.867,4.572,1.995,"Toilettes publiques,Laverie,Relais colis,Boutique non alimentaire,Restauration à emporter,Restauration sur place,Bar,Vente de pétrole lampant,Station de gonflage,Location de véhicule,Piste poids lourds,Espace bébé,Vente de gaz domestique (Butane, Propane),Wifi,Automate CB 24/24,DAB (Distributeur automatique de billets)",Côte-d'Or,21,Bourgogne-Franche-Comté,27
30100013,30100,ZI AV. DE CROUPILLAC,Alès,44.138,4.104,1.99,"Boutique alimentaire,Boutique non alimentaire,Station de gonflage,Carburant additivé,Piste poids lourds,Lavage automatique,Vente de gaz domestique (Butane, Propane),Vente d'additifs carburants,Wifi,Automate CB 24/24,DAB (Distributeur automatique de billets)",Gard,30,Occitanie,76
24230002,24230,26 Avenue del peirigord,Vélines,44.852,0.104,2.028,"Relais colis,Boutique alimentaire,Vente de gaz domestique (Butane, Propane),Automate CB 24/24",Dordogne,24,Nouvelle-Aquitaine,75
19300002,19300,Avenue Charles de Gaulle,Égletons,45.402,2.042,,"Toilettes publiques,Boutique alimentaire,Boutique non alimentaire,Location de véhicule,Piste poids lourds,Vente de gaz domestique (Butane, Propane)",Corrèze,19,Nouvelle-Aquitaine,75
82800001,82800,Rue des Marchats,Nègrepelisse,44.07487,1.51788,2.089,"Boutique alimentaire,Boutique non alimentaire,Restauration à emporter,Vente de fioul domestique,Vente de pétrole lampant,Station de gonflage,Location de véhicule,Piste poids lourds,Lavage automatique,Lavage manuel,Vente de gaz domestique (Butane, Propane),DAB (Distributeur automatique de billets)",Tarn-et-Garonne,82,Occitanie,76
13270004,13270,DEVIATION RN 568 OUEST,Fos-sur-Mer,43.441,4.94,2.011,,Bouches-du-Rhône,13,Provence-Alpes-Côte d'Azur,93
13380002,13380,89 AVENUE DE LA LIBERATION,Plan-de-Cuques,43.341,5.457,1.99,,Bouches-du-Rhône,13,Provence-Alpes-Côte d'Azur,93
34420003,34420,ZAE Pôle Méditerranée,Villeneuve-lès-Béziers,43.322,3.291,1.988,"Laverie,Relais colis,Boutique alimentaire,Restauration à emporter,Restauration sur place,Vente de pétrole lampant,Lavage automatique,Vente de gaz domestique (Butane, Propane),Automate CB 24/24,DAB (Distributeur automatique de billets)",Hérault,34,Occitanie,76
64500006,64500,26 - RN 618 AVENUE DE CHANTACO,Saint-Jean-de-Luz,43.382,-1.649,,"Relais colis,Boutique alimentaire,Carburant additivé,Piste poids lourds,Lavage automatique,Vente de gaz domestique (Butane, Propane)",Pyrénées-Atlantiques,64,Nouvelle-Aquitaine,75
3200005,3200,Allée des ailes,Vichy,46.143,3.415,1.999,"Laverie,Station de gonflage,Vente de gaz domestique (Butane, Propane),Automate CB 24/24",Allier,3,Auvergne-Rhône-Alpes,84
3210001,3210,1 ROUTE DE COSNE,Souvigny,46.536,3.203,,"Laverie,Vente de pétrole lampant,Station de gonflage,Piste poids lourds,Lavage manuel,Vente de gaz domestique (Butane, Propane),Automate CB 24/24,DAB (Distributeur automatique de billets)",Allier,3,Auvergne-Rhône-Alpes,84
77680004,77680,Place Robert Schuman,Roissy-en-Brie,48.79,2.642,1.992,"Vente de gaz domestique (Butane, Propane),DAB (Distributeur automatique de billets)",Seine-et-Marne,77,Île-de-France,11
14400004,14400,BOULEVARD MONTGOMERY,Bayeux,49.271,-0.694,2.011,,Calvados,14,Normandie,28
39100006,39100,9 Rue Léon Bel,Dole,47.10875,5.50677,,"Toilettes publiques,Boutique alimentaire,Boutique non alimentaire,Restauration à emporter,Restauration sur place,Bar,Location de véhicule,Piste poids lourds,DAB (Distributeur automatique de billets)",Jura,39,Bourgogne-Franche-Comté,27
29450001,29450,ZA du Pont Bleu,Sizun,48.411,-4.087,2.029,"Laverie,Station de gonflage,Piste poids lourds,Lavage automatique,Vente de gaz domestique (Butane, Propane),Automate CB 24/24",Finistère,29,Bretagne,53
78140010,78140,"27,RUE LOUIS BREGUET",Vélizy-Villacoublay,48.781,2.183,2.189,"Boutique alimentaire,Boutique non alimentaire,Station de gonflage,Carburant additivé,Lavage automatique,Vente de gaz domestique (Butane, Propane),Automate CB 24/24",Yvelines,78,Île-de-France,11
86310002,86310,8 Avenue du Général de Gaulle,Saint-Savin,46.567,0.86,,"Laverie,Relais colis,Station de gonflage,Lavage automatique,Vente de gaz domestique (Butane, Propane),Bornes électriques,Automate CB 24/24",Vienne,86,Nouvelle-Aquitaine,75
18200011,18200,Autoroute A71 - La GazonnièreSens Bourges – Clermond-Ferrand,Farges-Allichamps,46.752,2.416,2.228,"Toilettes publiques,Boutique alimentaire,Boutique non alimentaire,Restauration à emporter,Restauration sur place,Station de gonflage,Carburant additivé,Aire de camping-cars,Piste poids lourds,Espace bébé,DAB (Distributeur automatique de billets)",Cher,18,Centre-Val de Loire,24
19190002,19190,RD15 LE BOURG,Le Pescher,45.071202,1.737681,,,Corrèze,19,Nouvelle-Aquitaine,75
87570002,87570,87 rue jean monet,Rilhac-Rancon,45.89885,1.31178,2.059,"Restauration à emporter,Station de gonflage,Lavage manuel,Vente de gaz domestique (Butane, Propane),DAB (Distributeur automatique de billets)",Haute-Vienne,87,Nouvelle-Aquitaine,75
64330001,64330,Avenue Georges Phesans,Garlin,43.557,-0.284,2.496,"Toilettes publiques,Laverie,Boutique alimentaire,Boutique non alimentaire,Station de gonflage,Carburant additivé,Location de véhicule,Piste poids lourds,Lavage automatique,Lavage manuel,Vente de gaz domestique (Butane, Propane),Bornes électriques",Pyrénées-Atlantiques,64,Nouvelle-Aquitaine,75
50260003,50260,240 Rue Bitouzé d'Auxmesnil,Bricquebec-en-Cotentin,49.468,-1.64,1.995,"Vente de gaz domestique (Butane, Propane),DAB (Distributeur automatique de billets)",Manche,50,Normandie,28
77550004,77550,AUTOROUTE A5B - AIRE DE GALANDE-LA-MARE-LAROCHE,Évry-Grégy-sur-Yerre,48.626,2.63,1.99,"Toilettes publiques,Douches,Boutique alimentaire,Boutique non alimentaire,Restauration à emporter,Restauration sur place,Station de gonflage,Carburant additivé",Seine-et-Marne,77,Île-de-France,11
69700002,69700,1293 Route de Beaucaire (Ex.45 R.N. 86),Loire-sur-Rhône,45.56,4.81,,"Toilettes publiques,Boutique non alimentaire,Station de gonflage,Carburant additivé,Piste poids lourds,Services réparation / entretien,Vente de gaz domestique (Butane, Propane),Vente d'additifs carburants",Rhône,69,Auvergne-Rhône-Alpes,84
69480002,69480,633 route de villefranche,Anse,45.943,4.715,2.019,"Boutique non alimentaire,Carburant additivé,Services réparation / entretien,Vente de gaz domestique (Butane, Propane)",Rhône,69,Auvergne-Rhône-Alpes,84
74330002,74330,Route Nationale 508,Epagny Metz-Tessy,45.941,6.088,1.97,"Carburant additivé,Piste poids lourds,Vente de gaz domestique (Butane, Propane),Automate CB 24/24",Haute-Savoie,74,Auvergne-Rhône-Alpes,84
91100019,91100,46 avenue du 8 mai 1945,Corbeil-Essonnes,48.611,2.452,2.043,"Station de gonflage,Piste poids lourds,DAB (Distributeur automatique de billets)",Essonne,91,Île-de-France,11
88170006,88170,AUT.A31-AIRE DE LORRAINE SANDAUCOURT-LES RAPPES,Sandaucourt,48.2666363,5.8637440000000005,1.99,,Vosges,88,Grand Est,44
33440006,33440,avenue des Industries,Ambarès-et-Lagrave,44.926153290504004,-0.52054201580751,,"Carburant additivé,Automate CB 24/24",Gironde,33,Nouvelle-Aquitaine,75
43770001,43770,17 Avenue des Champs Élysées,Chadrac,45.053,3.9,1.965,"Station de gonflage,Piste poids lourds,Vente de gaz domestique (Butane, Propane),Automate CB 24/24,DAB (Distributeur automatique de billets)",Haute-Loire,43,Auvergne-Rhône-Alpes,84
14470001,14470,ROUTE DE CAEN,Courseulles-sur-Mer,49.324,-0.457,,"Toilettes publiques,Boutique alimentaire,Boutique non alimentaire,Station de gonflage,Lavage automatique,Automate CB 24/24",Calvados,14,Normandie,28
59540002,59540,Rue de la Gare,Caudry,50.112,3.41,,"Laverie,Vente de gaz domestique (Butane, Propane),DAB (Distributeur automatique de billets)",Nord,59,Hauts-de-France,32
95100011,95100,2 Avenue Gabriel Péri,Argenteuil,48.943,2.253,2.077,,Val-d'Oise,95,Île-de-France,11
75016001,75016,1 Avenue du Général Sarrail,Paris,48.847,2.256,02.06,Bornes électriques,Paris,75,Île-de-France,11
26400002,26400,19 AVENUE ADRIEN FAYOLLE,Crest,44.726,05.03,2.129,"Laverie,Relais colis,Boutique alimentaire,Station de gonflage,Carburant additivé,Lavage automatique,Lavage manuel,Vente de gaz domestique (Butane, Propane)",Drôme,26,Auvergne-Rhône-Alpes,84
88400005,88400,68 BOULEVARD KELSCH,Gérardmer,48.075,6.884,,"Relais colis,Boutique alimentaire,Station de gonflage,Carburant additivé,Piste poids lourds,Vente de gaz domestique (Butane, Propane),Vente d'additifs carburants,Wifi",Vosges,88,Grand Est,44
6201001,6200,606 boulevard du mercantour,Nice,43.73,7.186,2.043,"Vente de pétrole lampant,Station de gonflage,Carburant additivé,Piste poids lourds,Vente de gaz domestique (Butane, Propane),Automate CB 24/24",Alpes-Maritimes,6,Provence-Alpes-Côte d'Azur,93
80580001,80580,RUE JEAN MOULIN,Pont-Remy,50.058008,1.9002544000000001,1.964,"Piste poids lourds,DAB (Distributeur automatique de billets)",Somme,80,Hauts-de-France,32
66170002,66170,157 AVENUE JEAN JAURES,Millas,42.692,2.691,2.089,"Vente de fioul domestique,Lavage automatique,Services réparation / entretien,Vente de gaz domestique (Butane, Propane),Vente d'additifs carburants",Pyrénées-Orientales,66,Occitanie,76
89690001,89690,ROUTE DES BEDETS,Chéroy,48.2,2.992,02.06,"Toilettes publiques,Laverie,Station de gonflage,Location de véhicule,Lavage automatique,Lavage manuel,Vente de gaz domestique (Butane, Propane),Bornes électriques,Wifi,Automate CB 24/24",Yonne,89,Bourgogne-Franche-Comté,27
13200009,13200,ZAC de la Fourchon,Arles,43.6675119789,4.63468013303,2.029,"Vente de gaz domestique (Butane, Propane),DAB (Distributeur automatique de billets)",Bouches-du-Rhône,13,Provence-Alpes-Côte d'Azur,93
67500013,67500,2 RUE DU POSTILLON,Haguenau,48.827314,7.792444000000001,2.038,"Relais colis,Carburant additivé,Vente de gaz domestique (Butane, Propane),Automate CB 24/24",Bas-Rhin,67,Grand Est,44
8150003,8150,89 AVENUE DES MARTYRS DE LA RESISTANCE,Renwez,49.833628,4.603904,,"Services réparation / entretien,Automate CB 24/24",Ardennes,8,Grand Est,44
73600010,73600,446 AVENUE DES 16EMES J.O. D HIVER,Moûtiers,45.487973282321,6.529250635582001,1.999,Automate CB 24/24,Savoie,73,Auvergne-Rhône-Alpes,84
39260003,39260,AVENUE DE FRANCHE COMTE,Moirans-en-Montagne,46.439,5.722,1.999,Automate CB 24/24,Jura,39,Bourgogne-Franche-Comté,27
20137007,20137,Station TOTAL - Quartier La Poretta,Porto-Vecchio,41.602,9.276,,"Toilettes publiques,Boutique non alimentaire,Vente de fioul domestique,Station de gonflage,Lavage automatique,Services réparation / entretien,Vente de gaz domestique (Butane, Propane),Vente d'additifs carburants,Automate CB 24/24",Corse-du-Sud,2A,Corse,94
13400003,13400,1000 Route de Gemenos,Aubagne,43.297,5.586,1.99,"Boutique alimentaire,Boutique non alimentaire,Restauration à emporter,Vente de fioul domestique,Station de gonflage,Piste poids lourds,Lavage manuel,Vente de gaz domestique (Butane, Propane),Vente d'additifs carburants",Bouches-du-Rhône,13,Provence-Alpes-Côte d'Azur,93
94420001,94420,63 avenue Maurice Berteaux,Le Plessis-Trévise,48.813,2.566,1.99,,Val-de-Marne,94,Île-de-France,11
69550003,69550,Route de Roanne,Amplepuis,45.97868,4.3202,1.959,,Rhône,69,Auvergne-Rhône-Alpes,84
81600001,81600,Route de Toulouse,Gaillac,43.893,1.881,1.988,"Toilettes publiques,Boutique alimentaire,Restauration à emporter,Restauration sur place,Vente de fioul domestique,Station de gonflage,Carburant additivé,Location de véhicule,Piste poids lourds,Lavage automatique,Lavage manuel,Espace bébé,Services réparation / entretien,Vente de gaz domestique (Butane, Propane),Automate CB 24/24,DAB (Distributeur automatique de billets)",Tarn,81,Occitanie,76
29270003,29270,2 rue Charles Le Goff,Carhaix-Plouguer,48.27519,-3.58155,,"Vente de gaz domestique (Butane, Propane),DAB (Distributeur automatique de billets)",Finistère,29,Bretagne,53
73420001,73420,214 Chemin de la Boisière,Drumettaz-Clarafond,45.657,5.911,1.99,"Boutique alimentaire,Boutique non alimentaire,Vente de fioul domestique,Station de gonflage,Lavage manuel,Vente de gaz domestique (Butane, Propane),DAB (Distributeur automatique de billets)",Savoie,73,Auvergne-Rhône-Alpes,84
59119003,59119,194 Route de Tournai,Waziers,50.392,3.108,1.99,"Relais colis,Boutique alimentaire,Boutique non alimentaire,Station de gonflage,Carburant additivé,Lavage automatique,Lavage manuel,Vente de gaz domestique (Butane, Propane),Wifi,Automate CB 24/24,DAB (Distributeur automatique de billets)",Nord,59,Hauts-de-France,32
38470002,38470,"251, Rue de l'Europe",Vinay,45.208,5.414,2.019,"Toilettes publiques,Relais colis,Boutique alimentaire,Restauration à emporter,Restauration sur place,Station de gonflage,Carburant additivé,Aire de camping-cars,Location de véhicule,Piste poids lourds,Vente de gaz domestique (Butane, Propane),Bornes électriques,Vente d'additifs carburants,Wifi,Automate CB 24/24,DAB (Distributeur automatique de billets)",Isère,38,Auvergne-Rhône-Alpes,84
71000020,71000,Rue Frédéric Mistral,Mâcon,46.287918551893995,4.8075269731918,1.953,"Laverie,Relais colis,Station de gonflage,Location de véhicule,Lavage automatique,Vente de gaz domestique (Butane, Propane),Bornes électriques,DAB (Distributeur automatique de billets)",Saône-et-Loire,71,Bourgogne-Franche-Comté,27
83136012,83136,43 avenue de La Liberation,Forcalqueiret,43.339,6.084,1.99,"Boutique alimentaire,Vente de fioul domestique,Station de gonflage,Vente de gaz domestique (Butane, Propane),Vente d'additifs carburants,Automate CB 24/24",Var,83,Provence-Alpes-Côte d'Azur,93
34170001,34170,753 Route de la Pompignane,Castelnau-le-Lez,43.623,3.898,2.069,"Boutique alimentaire,Station de gonflage,Location de véhicule,Piste poids lourds,Vente de gaz domestique (Butane, Propane),Automate CB 24/24,DAB (Distributeur automatique de billets)",Hérault,34,Occitanie,76
33520002,33520,A630 ROC.PRESQU'ILE LAC COTE2,Bruges,44.888,-0.579,2.102,"Toilettes publiques,Boutique alimentaire,Boutique non alimentaire,Station de gonflage,Carburant additivé,Piste poids lourds,Espace bébé,DAB (Distributeur automatique de billets)",Gironde,33,Nouvelle-Aquitaine,75
12350002,12350,Avenue du rouergue,Lanuéjouls,44.424,2.156,2.099,"Boutique alimentaire,Carburant additivé,Piste poids lourds,Vente de gaz domestique (Butane, Propane),Automate CB 24/24,DAB (Distributeur automatique de billets)",Aveyron,12,Occitanie,76
74210003,74210,ZA les Boucheroz RN 508,Faverges-Seythenex,45.75333,6.27791,,"Vente de gaz domestique (Butane, Propane),DAB (Distributeur automatique de billets)",Haute-Savoie,74,Auvergne-Rhône-Alpes,84
14130010,14130,AIRE DE QUETTEVILLE A29,Quetteville,49.336906,0.308019,2.229,"Toilettes publiques,Automate CB 24/24",Calvados,14,Normandie,28
29610002,29610,AVENUE DU MARECHAL LECLERC,Plouigneau,48.57,-3.708,,"Laverie,Boutique alimentaire,Boutique non alimentaire,Vente de gaz domestique (Butane, Propane),Automate CB 24/24",Finistère,29,Bretagne,53
37380004,37380,AUTOROUTE A10 - AIRE TOURS VAL DE LOIRE,Monnaie,47.474,0.777,1.99,"Toilettes publiques,Douches,Boutique alimentaire,Boutique non alimentaire,Station de gonflage,Piste poids lourds,Espace bébé,DAB (Distributeur automatique de billets)",Indre-et-Loire,37,Centre-Val de Loire,24
25310001,25310,32  GRANDE RUE,Blamont,47.391114566038,6.847145236797699,2.039,Automate CB 24/24,Doubs,25,Bourgogne-Franche-Comté,27
7380002,7380,Allée de Vals,Lalevade-d'Ardèche,44.6498922918,4.32447950169,1.974,"Vente de gaz domestique (Butane, Propane),DAB (Distributeur automatique de billets)",Ardèche,7,Auvergne-Rhône-Alpes,84
51240002,51240,RN44,Pogny,48.861,4.485,02.05,"Laverie,Piste poids lourds,Vente de gaz domestique (Butane, Propane),Automate CB 24/24,DAB (Distributeur automatique de billets)",Marne,51,Grand Est,44
38490013,38490,556 rue gambetta,Les Abrets en Dauphiné,45.53252,5.586953,2.029,"Relais colis,Boutique alimentaire,Boutique non alimentaire,Station de gonflage,Piste poids lourds,Vente de gaz domestique (Butane, Propane),Automate CB 24/24",Isère,38,Auvergne-Rhône-Alpes,84
63360003,63360,Rue des Martyrs,Gerzat,45.82,3.15,1.972,"Laverie,Relais colis,Boutique alimentaire,Station de gonflage,Piste poids lourds,Vente de gaz domestique (Butane, Propane),Bornes électriques,Wifi,Automate CB 24/24,DAB (Distributeur automatique de billets)",Puy-de-Dôme,63,Auvergne-Rhône-Alpes,84
86000021,86000,"70, avenue John Kennedy",Poitiers,46.589,0.36,2.119,"Relais colis,Boutique alimentaire,Boutique non alimentaire,Station de gonflage,Carburant additivé,Piste poids lourds,Lavage manuel,Vente de gaz domestique (Butane, Propane),Vente d'additifs carburants,Automate CB 24/24",Vienne,86,Nouvelle-Aquitaine,75
30160002,30160,Sauvegarde,Bessèges,44.287,4.11,2.025,"Toilettes publiques,Vente de gaz domestique (Butane, Propane),Vente d'additifs carburants,Automate CB 24/24",Gard,30,Occitanie,76
53140001,53140,zone Normandie Maine,Pré-en-Pail-Saint-Samson,48.4592772097,-0.201907855867,1.999,"Station de gonflage,Location de véhicule,Piste poids lourds,Lavage manuel,Vente de gaz domestique (Butane, Propane)",Mayenne,53,Pays de la Loire,52
21510001,21510,9 Rue d'Archeron,Aignay-le-Duc,47.6639753145,4.7299228648,,"Boutique non alimentaire,Piste poids lourds,Vente de gaz domestique (Butane, Propane),DAB (Distributeur automatique de billets)",Côte-d'Or,21,Bourgogne-Franche-Comté,27
33640002,33640,43 Route des Graves,Portets,44.688,-0.417,1.99,"Boutique non alimentaire,Vente de fioul domestique,Station de gonflage,Carburant additivé,Lavage automatique,Lavage manuel,Services réparation / entretien,Vente de gaz domestique (Butane, Propane),Vente d'additifs carburants",Gironde,33,Nouvelle-Aquitaine,75
31190002,31190,RN20,Auterive,43.348381304200004,1.47203766924,1.999,"Vente de gaz domestique (Butane, Propane),DAB (Distributeur automatique de billets)",Haute-Garonne,31,Occitanie,76
58000010,58000,10 Boulevard Pierre de Coubertin,Nevers,46.987,3.162,2.109,"Relais colis,Station de gonflage,Carburant additivé,Automate CB 24/24",Nièvre,58,Bourgogne-Franche-Comté,27
6580001,6580,87 Route de la Fènerie,Pégomas,43.592,6.93,2.039,"Toilettes publiques,Vente de pétrole lampant,Carburant additivé,Vente de gaz domestique (Butane, Propane),Automate CB 24/24",Alpes-Maritimes,6,Provence-Alpes-Côte d'Azur,93
55700006,55700,AVENUE DE VERDUN,Stenay,49.483853119268,5.2033975146027,1.989,Piste poids lourds,Meuse,55,Grand Est,44
39700013,39700,ROUTE NATIONALE 73,Rochefort-sur-Nenon,47.116137241037,5.5385215038275,1.99,DAB (Distributeur automatique de billets),Jura,39,Bourgogne-Franche-Comté,27
38500006,38500,7 RUE DE L'INDUSTRIE,Voiron,45.359,5.595,2.049,Automate CB 24/24,Isère,38,Auvergne-Rhône-Alpes,84
13170013,13170,RN 113,Les Pennes-Mirabeau,43.411139115325,5.3096598881206996,2.129,"Toilettes publiques,Boutique alimentaire,Station de gonflage,Carburant additivé,Piste poids lourds,Lavage automatique,Services réparation / entretien,Vente de gaz domestique (Butane, Propane),Automate CB 24/24",Bouches-du-Rhône,13,Provence-Alpes-Côte d'Azur,93
94800008,94800,60 AV DE STALINGRAD,Villejuif,48.785417567889,2.366599755323,,,Val-de-Marne,94,Île-de-France,11
62180002,62180,LA FOLIE NORD,Rang-du-Fliers,50.412,1.608,2.039,"Toilettes publiques,Laverie,Relais colis,Boutique alimentaire,Boutique non alimentaire,Restauration à emporter,Restauration sur place,Bar,Vente de pétrole lampant,Station de gonflage,Carburant additivé,Location de véhicule,Lavage automatique,Lavage manuel,Vente de gaz domestique (Butane, Propane),Bornes électriques,DAB (Distributeur automatique de billets)",Pas-de-Calais,62,Hauts-de-France,32
33340001,33340,25 COURS GEORGES MANDEL,Lesparre-Médoc,45.3103,-0.93839,,"Boutique alimentaire,Station de gonflage,Carburant additivé,Piste poids lourds,Lavage automatique,Lavage manuel",Gironde,33,Nouvelle-Aquitaine,75
29510005,29170,Rue d'Armor,Saint-Évarzec,47.938,-4.023,2.033,Automate CB 24/24,Finistère,29,Bretagne,53
33760002,33760,Route de Bordeaux,Targon,44.736,-0.268,2.015,"Relais colis,Boutique alimentaire,Boutique non alimentaire,Vente de gaz domestique (Butane, Propane),Automate CB 24/24",Gironde,33,Nouvelle-Aquitaine,75
76240001,76240,rue Etienne ACHAVANNE,Bonsecours,49.418,1.133,1.999,"Laverie,Relais colis,Boutique alimentaire,Station de gonflage,Location de véhicule,Lavage manuel,Vente de gaz domestique (Butane, Propane),Automate CB 24/24",Seine-Maritime,76,Normandie,28
42100005,42100,36 Rue de Terrenoire,Saint-Étienne,45.433,4.415,2.029,,Loire,42,Auvergne-Rhône-Alpes,84
43000004,43000,106 Avenue Maréchal Foch,Le Puy-en-Velay,45.033,3.886,1.996,,Haute-Loire,43,Auvergne-Rhône-Alpes,84
20129001,20129,SUARALTA,Bastelicaccia,41.924,8.825,,"Boutique alimentaire,Boutique non alimentaire,Restauration à emporter,Restauration sur place,Vente de fioul domestique,Vente de pétrole lampant,Station de gonflage,Carburant additivé,Piste poids lourds,Lavage automatique,Lavage manuel,Services réparation / entretien,Vente de gaz domestique (Butane, Propane),DAB (Distributeur automatique de billets)",Corse-du-Sud,2A,Corse,94
44260003,44260,Rue des Musiciens,Malville,47.35931,-1.86116,1.999,Piste poids lourds,Loire-Atlantique,44,Pays de la Loire,52
38200019,38200,2 RUE DU COLONEL ARNAUD BELTRAME,Vienne,45.502489078125,4.8505126269,1.999,"Toilettes publiques,Boutique alimentaire,Boutique non alimentaire,Restauration à emporter,Restauration sur place,Vente de gaz domestique (Butane, Propane),Automate CB 24/24,DAB (Distributeur automatique de billets)",Isère,38,Auvergne-Rhône-Alpes,84
45100008,45100,39 AV .J.F.KENNEDY,Orléans,47.84264,1.92524,1.99,"Toilettes publiques,Boutique alimentaire,Boutique non alimentaire,Station de gonflage,Carburant additivé,Lavage automatique,Lavage manuel,Services réparation / entretien,Vente de gaz domestique (Butane, Propane),DAB (Distributeur automatique de billets)",Loiret,45,Centre-Val de Loire,24
55200004,55200,1 rue Jean Moulin,Commercy,48.756,5.585,2.042,"Laverie,Lavage manuel,Vente de gaz domestique (Butane, Propane),DAB (Distributeur automatique de billets)",Meuse,55,Grand Est,44
74350006,74350,363 ROUTE D'ANNECY,Cruseilles,46.014,6.111,2.099,"Laverie,Relais colis,Boutique alimentaire,Boutique non alimentaire,Station de gonflage,Piste poids lourds,Vente de gaz domestique (Butane, Propane),Wifi,Automate CB 24/24",Haute-Savoie,74,Auvergne-Rhône-Alpes,84
71600003,71600,Parc d'activités de Champ Bossu,Paray-le-Monial,46.467142444554995,4.1131633933708,1.989,"Toilettes publiques,Laverie,Boutique alimentaire,Boutique non alimentaire,Restauration à emporter,Restauration sur place,Bar,Vente de fioul domestique,Station de gonflage,Location de véhicule,Vente de gaz domestique (Butane, Propane),DAB (Distributeur automatique de billets)",Saône-et-Loire,71,Bourgogne-Franche-Comté,27
46300004,46300,Route de Fumel,Gourdon,44.726,1.373,2.039,"Toilettes publiques,Laverie,Boutique alimentaire,Boutique non alimentaire,Restauration à emporter,Restauration sur place,Bar,Station de gonflage,Location de véhicule,Lavage automatique,Lavage manuel,Espace bébé,Vente de gaz domestique (Butane, Propane),DAB (Distributeur automatique de billets)",Lot,46,Occitanie,76
88600001,88600,500 ROUTE DE LEPANGES,Laval-sur-Vologne,48.188,6.688,,"Toilettes publiques,Station de gonflage,Carburant additivé,Piste poids lourds,Services réparation / entretien,DAB (Distributeur automatique de billets)",Vosges,88,Grand Est,44
67310003,67310,58 Route de Hohengoeft,Wasselonne,48.646,7.453,1.998,"Piste poids lourds,Automate CB 24/24",Bas-Rhin,67,Grand Est,44
64100010,64100,22 Chemin d'Arancette,Bayonne,43.483,-1.488,2.014,"Relais colis,Station de gonflage,Location de véhicule,Vente de gaz domestique (Butane, Propane),DAB (Distributeur automatique de billets)",Pyrénées-Atlantiques,64,Nouvelle-Aquitaine,75
26290008,26290,280 avenue Jean Moulin RN7,Donzère,44.436,4.717,,"Toilettes publiques,Relais colis,Boutique alimentaire,Boutique non alimentaire,Station de gonflage,Location de véhicule,Vente de gaz domestique (Butane, Propane),Wifi,Automate CB 24/24,DAB (Distributeur automatique de billets)",Drôme,26,Auvergne-Rhône-Alpes,84
51000005,51000,ROUTE D'EPERNAY,Châlons-en-Champagne,48.955,4.332,2.061,,Marne,51,Grand Est,44
30000016,30900,120 Chemin du Mas Fléchier,Nîmes,43.815227701262,4.3693488211645,,"Station de gonflage,Lavage automatique,Lavage manuel,Automate CB 24/24",Gard,30,Occitanie,76
70000001,70000,Boulevard Kennedy,Vesoul,47.627,6.172,1.981,"Toilettes publiques,Laverie,Relais colis,Boutique alimentaire,Boutique non alimentaire,Restauration à emporter,Restauration sur place,Vente de pétrole lampant,Station de gonflage,Carburant additivé,Vente de gaz domestique (Butane, Propane),Bornes électriques,Vente d'additifs carburants,Automate CB 24/24,DAB (Distributeur automatique de billets)",Haute-Saône,70,Bourgogne-Franche-Comté,27
57430004,57430,97 Route de Strasbourg,Sarralbe,48.987,7.028,,"Boutique alimentaire,Boutique non alimentaire,Restauration à emporter,Carburant additivé,Vente de gaz domestique (Butane, Propane),Vente d'additifs carburants,DAB (Distributeur automatique de billets)",Moselle,57,Grand Est,44
52100008,52100,ROUTE DE VITRY,Saint-Dizier,48.641,4.908,2.023,,Haute-Marne,52,Grand Est,44
53410003,53410,2 route Neuve,La Gravelle,48.074,-1.016,1.99,"Boutique alimentaire,Boutique non alimentaire,Station de gonflage,Carburant additivé,Piste poids lourds,Vente de gaz domestique (Butane, Propane),Vente d'additifs carburants,Automate CB 24/24",Mayenne,53,Pays de la Loire,52
54450002,54450,11 GRANDE RUE,Avricourt,48.644,6.806,,Boutique non alimentaire,Meurthe-et-Moselle,54,Grand Est,44
6600008,6600,20 Boulevard Maréchal Leclerc,Antibes,43.574,7.124,1.985,,Alpes-Maritimes,6,Provence-Alpes-Côte d'Azur,93
54240002,54240,96 Rue de Franchepré,Jœuf,49.225,6.014,2.068,,Meurthe-et-Moselle,54,Grand Est,44
54220001,54220,49 Rue du Colonel Driant,Malzéville,48.705,6.192,2.067,,Meurthe-et-Moselle,54,Grand Est,44
54230001,54230,46 Rue du Capitaine Caillon,Neuves-Maisons,48.615,6.104,2.068,,Meurthe-et-Moselle,54,Grand Est,44
66700003,66700,Avenue du 8 mai 1945,Argelès-sur-Mer,42.55,3.041,2.059,"Toilettes publiques,Relais colis,Boutique alimentaire,Boutique non alimentaire,Vente de fioul domestique,Vente de pétrole lampant,Station de gonflage,Location de véhicule,Piste poids lourds,Lavage automatique,Lavage manuel,Services réparation / entretien,Vente de gaz domestique (Butane, Propane)",Pyrénées-Orientales,66,Occitanie,76
57600003,57600,655 Rue de Sarreguemines,Œting,49.174,6.918,2.038,,Moselle,57,Grand Est,44
55160014,55160,AUTOROUTE A4 AIRE DE VERDUN SAINT NICOLAS NORD,Haudiomont,49.120326,5.5083983,2.116,"Toilettes publiques,Douches,Boutique alimentaire,Boutique non alimentaire,Restauration à emporter,Restauration sur place,Station de gonflage,Carburant additivé,Piste poids lourds,Espace bébé",Meuse,55,Grand Est,44
70130001,70130,"12, avenue des Peupliers",Fresne-Saint-Mamès,47.551,5.856,1.996,,Haute-Saône,70,Bourgogne-Franche-Comté,27
59174002,59174,AUTOROUTE A2 - AIRE DE LA SENTINELLE OUEST,La Sentinelle,50.33964,3.46647,1.99,,Nord,59,Hauts-de-France,32
59130001,59130,237 Avenue de l'Hippodrome,Lambersart,50.645,3.029,1.978,,Nord,59,Hauts-de-France,32
59280001,59280,20 Rue Gambetta,Armentières,50.683,2.881,2.047,,Nord,59,Hauts-de-France,32
77230001,77230,ROUTE DE PARIS,Villeneuve-sous-Dammartin,49.033351374453,2.6360046095685,1.99,"Toilettes publiques,Boutique alimentaire,Boutique non alimentaire,Station de gonflage,Carburant additivé,Piste poids lourds,Lavage automatique,Lavage manuel,Services réparation / entretien,Vente de gaz domestique (Butane, Propane),Wifi,Automate CB 24/24",Seine-et-Marne,77,Île-de-France,11
30420002,30420,"2, rue du Levant",Calvisson,43.7831211,4.2036004,1.979,"Laverie,Boutique alimentaire,Station de gonflage,Piste poids lourds,Lavage manuel,Vente de gaz domestique (Butane, Propane),DAB (Distributeur automatique de billets)",Gard,30,Occitanie,76
83600026,83600,959 avenue du Maréchal de Lattre de Tassigny,Fréjus,43.431000975238994,6.7552803524051,2.039,"Station de gonflage,Carburant additivé,Automate CB 24/24",Var,83,Provence-Alpes-Côte d'Azur,93
59440002,59440,39 AVENUE STROH,Avesnes-sur-Helpe,50.129,3.937,2.003,,Nord,59,Hauts-de-France,32
59450002,59450,121 AVENUE ROGER SALENGRO,Douai,50.364,3.097,2.039,,Nord,59,Hauts-de-France,32
38350005,38350,AVENUE DU 22 AOUT 1944,La Mure,44.913,5.784,,"Boutique alimentaire,Station de gonflage,Carburant additivé,Automate CB 24/24",Isère,38,Auvergne-Rhône-Alpes,84
44720005,44720,PLACE DE LA COMMUNE DE PARIS,Saint-Joachim,47.386232393331,-2.2034903965863997,2.009,"Toilettes publiques,Relais colis,Boutique alimentaire,Automate CB 24/24",Loire-Atlantique,44,Pays de la Loire,52
50760001,50760,132 RUE ST THOMAS,Barfleur,49.666,-1.27,,"Vente de gaz domestique (Butane, Propane),Automate CB 24/24",Manche,50,Normandie,28
62560002,62560,26 RUE PRINCIPALE,Dennebrœucq,50.59081,2.1688,,"Toilettes publiques,Boutique alimentaire,Bar,Carburant additivé,Piste poids lourds,Vente de gaz domestique (Butane, Propane)",Pas-de-Calais,62,Hauts-de-France,32
20200006,20200,37 ROUTE DU CAP,San-Martino-di-Lota,42.728585259999996,9.45947796,,"Toilettes publiques,Relais colis,Boutique alimentaire,Boutique non alimentaire,Vente de fioul domestique,Vente de pétrole lampant,Station de gonflage,Vente de gaz domestique (Butane, Propane)",Haute-Corse,2B,Corse,94
24340002,24340,Lieu dit chez Noillac,Mareuil en Périgord,45.447,0.467,2.099,"Laverie,Relais colis,Boutique alimentaire,Vente de gaz domestique (Butane, Propane),Automate CB 24/24,DAB (Distributeur automatique de billets)",Dordogne,24,Nouvelle-Aquitaine,75
82700001,82700,171 Avenue d'Auch,Montech,43.956,1.221,,"Boutique alimentaire,Vente de fioul domestique,Station de gonflage,Carburant additivé,Piste poids lourds,Lavage manuel,Vente de gaz domestique (Butane, Propane),Vente d'additifs carburants,Automate CB 24/24",Tarn-et-Garonne,82,Occitanie,76
93150009,93150,140 AVENUE DE LA REPUBLIQUE,Le Blanc-Mesnil,48.935,2.473,1.99,"Toilettes publiques,Boutique alimentaire,Carburant additivé,Lavage automatique,Vente de gaz domestique (Butane, Propane)",Seine-Saint-Denis,93,Île-de-France,11
25110001,25110,2 Avenue du Général Leclerc,Baume-les-Dames,47.352,6.358,,"Toilettes publiques,Relais colis,Boutique non alimentaire,Station de gonflage,Carburant additivé,Piste poids lourds,Vente de gaz domestique (Butane, Propane),Vente d'additifs carburants",Doubs,25,Bourgogne-Franche-Comté,27
18390004,18390,1 Place du 8 Mai 1945,Saint-Germain-du-Puy,47.099,2.489,,"Boutique alimentaire,Boutique non alimentaire,Location de véhicule,Automate CB 24/24,DAB (Distributeur automatique de billets)",Cher,18,Centre-Val de Loire,24
59760001,59760,Avenue de l'Ancien Village,Grande-Synthe,51.011,2.293,1.999,"Toilettes publiques,Vente de pétrole lampant,Station de gonflage,Carburant additivé,Piste poids lourds,Lavage automatique,Automate CB 24/24,DAB (Distributeur automatique de billets)",Nord,59,Hauts-de-France,32
76630001,76630,72 RUE DES CANADIENS,Envermeu,49.8971513,1.2598235,2.019,"Laverie,Relais colis,Boutique alimentaire,Boutique non alimentaire,Station de gonflage,Piste poids lourds,Lavage automatique,Vente de gaz domestique (Butane, Propane),Vente d'additifs carburants,Automate CB 24/24",Seine-Maritime,76,Normandie,28
56530001,56530,Place Pierre Quinio,Quéven,47.79,-3.421,1.975,"Toilettes publiques,Laverie,Relais colis,Boutique alimentaire,Boutique non alimentaire,Restauration sur place,Location de véhicule,Vente de gaz domestique (Butane, Propane),Bornes électriques,Wifi,Automate CB 24/24,DAB (Distributeur automatique de billets)",Morbihan,56,Bretagne,53
38200007,38200,ZA de la Gère,Vienne,45.519,4.919,2.009,"Toilettes publiques,Station de gonflage,Lavage automatique,Lavage manuel,Vente de gaz domestique (Butane, Propane),Automate CB 24/24,DAB (Distributeur automatique de billets)",Isère,38,Auvergne-Rhône-Alpes,84
54670004,54670,41 RUE DU GAL LECLERC,Custines,48.792845,6.145033000000001,,"Toilettes publiques,Relais colis,Boutique alimentaire,Station de gonflage,Carburant additivé,Piste poids lourds",Meurthe-et-Moselle,54,Grand Est,44
71170003,71170,Route de Charlieu,Chauffailles,46.207,4.314,2.039,"Piste poids lourds,Automate CB 24/24,DAB (Distributeur automatique de billets)",Saône-et-Loire,71,Bourgogne-Franche-Comté,27
14404001,14400,Boulevard du 6 Juin,Bayeux,49.277,-0.719,1.985,"Toilettes publiques,Boutique alimentaire,Boutique non alimentaire,Vente de pétrole lampant,Station de gonflage,Carburant additivé,Location de véhicule,Piste poids lourds,Lavage automatique,Services réparation / entretien,Vente de gaz domestique (Butane, Propane),Wifi,Automate CB 24/24,DAB (Distributeur automatique de billets)",Calvados,14,Normandie,28
69009003,69009,69 AVENUE DU 25EME RTS,Lyon,45.781,4.801,2.014,,Rhône,69,Auvergne-Rhône-Alpes,84
17220002,17220,LE PETIT BONNEVEAU,Salles-sur-Mer,46.084,-1.074,1.995,"Piste poids lourds,Vente de gaz domestique (Butane, Propane),Automate CB 24/24",Charente-Maritime,17,Nouvelle-Aquitaine,75
57580002,57580,route de Metz,Rémilly,49.017,6.384,2.029,"Toilettes publiques,Relais colis,Boutique alimentaire,Restauration à emporter,Restauration sur place,Vente de fioul domestique,Vente de pétrole lampant,Station de gonflage,Location de véhicule,Piste poids lourds,Lavage automatique,Lavage manuel,Vente de gaz domestique (Butane, Propane),Bornes électriques,Wifi,DAB (Distributeur automatique de billets)",Moselle,57,Grand Est,44
13990002,13990,70 cours Hyacinthe Bellon,Fontvieille,43.727,4.712,2.089,"Boutique alimentaire,Boutique non alimentaire,Vente de fioul domestique,Station de gonflage,Carburant additivé,Lavage manuel,Services réparation / entretien,Vente de gaz domestique (Butane, Propane),Vente d'additifs carburants,Automate CB 24/24",Bouches-du-Rhône,13,Provence-Alpes-Côte d'Azur,93
21240003,21240,8 Rue Charles Dullin,Talant,47.341,4.997,2.019,"Toilettes publiques,Relais colis,Boutique alimentaire,Boutique non alimentaire,Restauration à emporter,Restauration sur place,Bar,Carburant additivé,Piste poids lourds,Vente de gaz domestique (Butane, Propane),DAB (Distributeur automatique de billets)",Côte-d'Or,21,Bourgogne-Franche-Comté,27
12500002,12500,24 Bd de Guizard,Espalion,44.52411668858701,2.7645702568363997,,"Toilettes publiques,Station de gonflage,Carburant additivé,Location de véhicule,Lavage automatique,Services réparation / entretien,Vente de gaz domestique (Butane, Propane),Vente d'additifs carburants,Automate CB 24/24",Aveyron,12,Occitanie,76
59300021,59300,36 AV DE ST AMAND,Valenciennes,50.366,3.513,2.149,"Toilettes publiques,Boutique alimentaire,Boutique non alimentaire,Station de gonflage,Carburant additivé,Services réparation / entretien,Vente de gaz domestique (Butane, Propane)",Nord,59,Hauts-de-France,32
23500002,23500,26 ROUTE D'AUBUSSON,Felletin,45.888,2.176,2.034,"Station de gonflage,Vente de gaz domestique (Butane, Propane)",Creuse,23,Nouvelle-Aquitaine,75
91620001,91620,5 RUE DE LA CROIX SAINT JACQUES,La Ville-du-Bois,48.67,2.277,,"Station de gonflage,Vente de gaz domestique (Butane, Propane),Automate CB 24/24,DAB (Distributeur automatique de billets)",Essonne,91,Île-de-France,11
59100012,59100,48 AVENUE GUSTAVE DELORY,Roubaix,50.67431,3.17409,,"Boutique alimentaire,Restauration à emporter,Station de gonflage,Carburant additivé,Lavage automatique,Vente de gaz domestique (Butane, Propane),DAB (Distributeur automatique de billets)",Nord,59,Hauts-de-France,32
66005001,66000,Avenue Victor Dalbiez,Perpignan,42.686492490449,2.8827135110700004,1.999,"Toilettes publiques,Laverie,Relais colis,Boutique alimentaire,Boutique non alimentaire,Restauration à emporter,Restauration sur place,Vente de pétrole lampant,Station de gonflage,Location de véhicule,Lavage automatique,Lavage manuel,Espace bébé,Services réparation / entretien,Vente de gaz domestique (Butane, Propane),Automate CB 24/24,DAB (Distributeur automatique de billets)",Pyrénées-Orientales,66,Occitanie,76
92242003,92242,12 Avenue Pierre Brossolette,Malakoff,48.821,2.312,,,Hauts-de-Seine,92,Île-de-France,11
74000004,74000,AVENUE DE LA PLAINE,Annecy,45.917,6.128,2.067,,Haute-Savoie,74,Auvergne-Rhône-Alpes,84
91410004,91420,69 Avenue Charles de Gaulle,Morangis,48.706,2.343,1.988,Automate CB 24/24,Essonne,91,Île-de-France,11
67370003,67370,5 ALLEE DE L’ECONOMIE,Wiwersheim,48.644,7.598,,"Vente d'additifs carburants,Automate CB 24/24",Bas-Rhin,67,Grand Est,44
87120005,87120,"1, rue Léon Jouhaud - Claud",Eymoutiers,45.738215264962,1.7352501557588,2.029,"Laverie,Station de gonflage,Piste poids lourds,Automate CB 24/24",Haute-Vienne,87,Nouvelle-Aquitaine,75
74960003,74960,1 Avenue de la République,Annecy,45.906,6.113,1.99,,Haute-Savoie,74,Auvergne-Rhône-Alpes,84
73000012,73000,VOIE RAP. URB. RN 201,La Motte-Servolex,45.609640912985,5.886971258695,1.99,"Station de gonflage,Carburant additivé,Piste poids lourds,Vente de gaz domestique (Butane, Propane),DAB (Distributeur automatique de billets)",Savoie,73,Auvergne-Rhône-Alpes,84
76200002,76200,78 RUE GAMBETTA,Dieppe,49.916,1.075,2.042,,Seine-Maritime,76,Normandie,28
76260005,76260,24 BD. FAIDHERBE - RD 925,Eu,50.051,1.423,,,Seine-Maritime,76,Normandie,28
24240003,24240,18 place de l'ancien temple,Sigoulès-et-Flaugeac,44.75739933224,0.41106265064555003,2.099,"Bar,Vente de gaz domestique (Butane, Propane),Vente d'additifs carburants,Automate CB 24/24,DAB (Distributeur automatique de billets)",Dordogne,24,Nouvelle-Aquitaine,75
57790001,57790,1BIS RUE DU GENERAL DE GAULLE,Lorquin,48.671,7.0,1.998,"Laverie,Boutique alimentaire,Boutique non alimentaire,Station de gonflage,Vente de gaz domestique (Butane, Propane),Vente d'additifs carburants",Moselle,57,Grand Est,44
31200022,31200,55 BOULEVARD DE SUISSE,Toulouse,43.616,1.421,1.99,"Boutique alimentaire,Boutique non alimentaire,Station de gonflage,Carburant additivé,Lavage automatique,Lavage manuel,Vente de gaz domestique (Butane, Propane)",Haute-Garonne,31,Occitanie,76
34620002,34620,43 avenue de béziers,Puisserguier,43.367,3.049,1.979,"Vente de fioul domestique,Station de gonflage,Piste poids lourds,Vente de gaz domestique (Butane, Propane),Automate CB 24/24",Hérault,34,Occitanie,76
59282001,59282,28 ROUTE D'HASPRES,Douchy-les-Mines,50.3030294549,3.4022997597799995,,"Toilettes publiques,Boutique alimentaire,Boutique non alimentaire,Restauration à emporter,Restauration sur place,Bar,Location de véhicule,Lavage automatique,DAB (Distributeur automatique de billets)",Nord,59,Hauts-de-France,32
78120005,78120,rue Clos Batant,Rambouillet,48.647,1.856,2.022,"Toilettes publiques,Boutique alimentaire,Boutique non alimentaire,Restauration à emporter,Restauration sur place,Bar,Station de gonflage,Location de véhicule,Piste poids lourds,Espace bébé,Vente de gaz domestique (Butane, Propane),Bornes électriques,Automate CB 24/24,DAB (Distributeur automatique de billets)",Yvelines,78,Île-de-France,11
8090001,8090,RN 43 LE PORT LEROY,Cliron,49.805,4.621,2.064,,Ardennes,8,Grand Est,44
92160006,92160,100 AV DU PRESIDENT KENNEDY,Antony,48.738,2.295,,"Boutique alimentaire,Boutique non alimentaire,Station de gonflage,Carburant additivé,Lavage automatique,Vente de gaz domestique (Butane, Propane)",Hauts-de-Seine,92,Île-de-France,11
77210001,77210,73 Avenue du Président Franklin Roosevelt,Fontainebleau,48.417,2.723,2.013,,Seine-et-Marne,77,Île-de-France,11
22250001,22250,Rue du Pilaga,Broons,48.315,-2.25,1.999,"Toilettes publiques,Relais colis,Boutique alimentaire,Boutique non alimentaire,Restauration à emporter,Station de gonflage,Location de véhicule,Piste poids lourds,Lavage automatique,Lavage manuel,Vente de gaz domestique (Butane, Propane),Vente d'additifs carburants,Automate CB 24/24,DAB (Distributeur automatique de billets)",Côtes-d'Armor,22,Bretagne,53
78170002,78170,64 Avenue Lucien-René Duchesne,La Celle-Saint-Cloud,48.837,2.13,02.07,,Yvelines,78,Île-de-France,11
11100010,11100,AVENUE CROIX SUD,Narbonne,43.161,2.988,2.012,,Aude,11,Occitanie,76
20110006,20110,4 Quartier Saint Joseph,Propriano,41.671966,8.908768,,"Laverie,Boutique alimentaire,Boutique non alimentaire,Aire de camping-cars,Piste poids lourds,Lavage automatique,Lavage manuel,Espace bébé,Vente de gaz domestique (Butane, Propane),Wifi,Automate CB 24/24",Corse-du-Sud,2A,Corse,94
20166002,20166,Station TOTAL - Relais du Rupione,Pietrosella,41.835,8.779,,"Boutique alimentaire,Boutique non alimentaire,Vente de fioul domestique,Station de gonflage,Lavage manuel,Vente de gaz domestique (Butane, Propane),Automate CB 24/24",Corse-du-Sud,2A,Corse,94
80100007,80100,213 Boulevard de la République,Abbeville,50.113,1.829,2.011,,Somme,80,Hauts-de-France,32
81000005,81000,246 Avenue Colonel Teyssier,Albi,43.922,2.166,1.987,,Tarn,81,Occitanie,76
80000008,80000,28 Place du Maréchal Foch,Amiens,49.894,2.285,2.004,,Somme,80,Hauts-de-France,32
67452001,67450,1 Boulevard des Enseignes,Vendenheim,48.655,7.724,02.04,"Station de gonflage,Carburant additivé,Vente de gaz domestique (Butane, Propane),Automate CB 24/24",Bas-Rhin,67,Grand Est,44
67120002,67120,RN 422,Dorlisheim,48.529266519707,7.4974740576593994,,"Toilettes publiques,Boutique non alimentaire,Station de gonflage,Carburant additivé,Piste poids lourds,Lavage automatique",Bas-Rhin,67,Grand Est,44
8330002,8330,12 RUE PIERRE VIENOT,Vrigne aux Bois,49.735,4.85,2.079,"Vente de gaz domestique (Butane, Propane),Automate CB 24/24",Ardennes,8,Grand Est,44
82710003,82710,"Aire de Nauze Vert, RN 20",Bressols,43.968,1.339,2.175,"Toilettes publiques,Douches,Boutique alimentaire,Boutique non alimentaire,Restauration à emporter,Restauration sur place,Bar,Station de gonflage,Carburant additivé,Piste poids lourds,Espace bébé,DAB (Distributeur automatique de billets)",Tarn-et-Garonne,82,Occitanie,76
29880005,29880,Rue d'Armorique,Plouguerneau,48.60691644999999,-4.5110560012668,1.999,Relais colis,Finistère,29,Bretagne,53
35400007,35400,55 Boulevard des Déportés,Saint-Malo,48.65797,-1.97092,1.989,"Laverie,Boutique alimentaire,Boutique non alimentaire,Restauration sur place,Bar,Piste poids lourds,Vente de gaz domestique (Butane, Propane),DAB (Distributeur automatique de billets)",Ille-et-Vilaine,35,Bretagne,53
36140003,36140,51 avenue de la République,Aigurande,46.437,1.823,1.99,"Boutique alimentaire,Vente de fioul domestique,Station de gonflage,Carburant additivé,Lavage automatique,Lavage manuel,Vente de gaz domestique (Butane, Propane),Vente d'additifs carburants",Indre,36,Centre-Val de Loire,24
86000025,86000,2 AVENUE DE LAFAYETTE,Poitiers,46.575843819083005,0.37463651274124,1.986,"Vente de gaz domestique (Butane, Propane),Automate CB 24/24",Vienne,86,Nouvelle-Aquitaine,75
87160002,87160,AUTOROUTE A 20,Saint-Sulpice-les-Feuilles,46.313,1.419,2.125,"Toilettes publiques,Douches,Boutique alimentaire,Boutique non alimentaire,Restauration à emporter,Restauration sur place,Bar,Station de gonflage,Carburant additivé,Aire de camping-cars,Piste poids lourds,Espace bébé",Haute-Vienne,87,Nouvelle-Aquitaine,75
34360002,34360,"420, avenue de Saint Pons",Saint-Chinian,43.422409575399996,2.93681726025,,"Station de gonflage,Piste poids lourds,Lavage automatique,Vente de gaz domestique (Butane, Propane),DAB (Distributeur automatique de billets)",Hérault,34,Occitanie,76
29690002,29690,Rue Paul Gauguin,Huelgoat,48.368,-3.749,,"Lavage manuel,Vente de gaz domestique (Butane, Propane)",Finistère,29,Bretagne,53
13500011,13500,ROUTE DE LAVERA,Martigues,43.399,5.041,,"Boutique alimentaire,Station de gonflage,Lavage automatique,Automate CB 24/24",Bouches-du-Rhône,13,Provence-Alpes-Côte d'Azur,93
18600003,18600,Route de Saint Pierre Le Moutier,Sancoins,46.833,2.938,2.015,"Station de gonflage,Vente de gaz domestique (Butane, Propane),DAB (Distributeur automatique de billets)",Cher,18,Centre-Val de Loire,24
30500003,30500,Route d'Uzès,Saint-Ambroix,44.255,4.203,2.197,"Toilettes publiques,Laverie,Restauration à emporter,Location de véhicule,Vente de gaz domestique (Butane, Propane)",Gard,30,Occitanie,76
95440001,95440,56 Rue de la Libération,Écouen,49.027,2.369,2.055,"Station de gonflage,Location de véhicule,Lavage automatique,Lavage manuel,Vente de gaz domestique (Butane, Propane),Wifi,Automate CB 24/24,DAB (Distributeur automatique de billets)",Val-d'Oise,95,Île-de-France,11
48000006,48000,"3 rue de la tendelle, ZAE du Causse d'Auge",Mende,44.535,3.503,,"Toilettes publiques,Vente de fioul domestique,Lavage manuel,Vente de gaz domestique (Butane, Propane),DAB (Distributeur automatique de billets)",Lozère,48,Occitanie,76
30300008,30300,36 AVENUE DE FARCIENNES,Beaucaire,43.812,4.63,,"Toilettes publiques,Boutique alimentaire,Station de gonflage,Location de véhicule,Lavage automatique,Services réparation / entretien,Vente de gaz domestique (Butane, Propane)",Gard,30,Occitanie,76
6540002,6540,839 route de LA GIANDOLA,Breil-sur-Roya,43.964,7.524,2.039,"Toilettes publiques,Boutique alimentaire,Boutique non alimentaire,Station de gonflage,Carburant additivé,Piste poids lourds,Lavage automatique,Lavage manuel,Services réparation / entretien,Vente de gaz domestique (Butane, Propane),Vente d'additifs carburants,Automate CB 24/24,DAB (Distributeur automatique de billets)",Alpes-Maritimes,6,Provence-Alpes-Côte d'Azur,93
44220005,44220,Boulevard Paul Langevin,Couëron,47.21363,-1.72222,,"Lavage manuel,Vente de gaz domestique (Butane, Propane),DAB (Distributeur automatique de billets)",Loire-Atlantique,44,Pays de la Loire,52
59460002,59460,940 Rue du Maréchal Leclerc,Jeumont,50.309,4.089,2.038,"Toilettes publiques,Relais colis,Boutique alimentaire,Boutique non alimentaire,Restauration à emporter,Restauration sur place,Vente de pétrole lampant,Location de véhicule,Piste poids lourds,Vente de gaz domestique (Butane, Propane),Vente d'additifs carburants,Automate CB 24/24,DAB (Distributeur automatique de billets)",Nord,59,Hauts-de-France,32
7430002,7430,Route de Lyon,Davézieux,45.261,4.703,2.004,"Relais colis,Location de véhicule,Vente de gaz domestique (Butane, Propane),DAB (Distributeur automatique de billets)",Ardèche,7,Auvergne-Rhône-Alpes,84
84500006,84500,AV JEAN GIONO,Pont-Saint-Esprit,44.258,4.65,1.99,"Boutique alimentaire,Boutique non alimentaire,Station de gonflage,Carburant additivé,Vente de gaz domestique (Butane, Propane),Vente d'additifs carburants,Wifi",Gard,30,Occitanie,76
61000008,61000,111 Avenue de Basingstoke,Alençon,48.44542,0.09912,,"Toilettes publiques,Boutique non alimentaire,Station de gonflage,Carburant additivé,Piste poids lourds,Vente de gaz domestique (Butane, Propane)",Orne,61,Normandie,28
10110001,10110,14 FAUX BOURG DE BOURGOGNE,Bar-sur-Seine,48.106,4.377,2.014,,Aube,10,Grand Est,44
67210004,67210,8 RUE DU MARECHAL JUIN,Obernai,48.45959,7.49509,1.99,,Bas-Rhin,67,Grand Est,44
78760004,78760,32 ROUTE DU PONTEL,Jouars-Pontchartrain,48.804,1.896,,"Boutique alimentaire,Boutique non alimentaire,Station de gonflage,Carburant additivé,Lavage automatique,Lavage manuel,Vente de gaz domestique (Butane, Propane)",Yvelines,78,Île-de-France,11
56550002,56550,97 route de PONT LOROIS,Belz,47.676,-3.197,1.99,"Boutique alimentaire,Boutique non alimentaire,Station de gonflage,Carburant additivé,Vente de gaz domestique (Butane, Propane),Vente d'additifs carburants,Automate CB 24/24",Morbihan,56,Bretagne,53
38690007,38690,AUTOROUTE A 48 GARE DE PEAGE,Colombe,45.384529100857,5.4723476793111,2.39,,Isère,38,Auvergne-Rhône-Alpes,84
92170002,92170,59 RUE JEAN BLEUZEN,Vanves,48.82274,2.29497,1.99,,Hauts-de-Seine,92,Île-de-France,11
33370006,33370,avenue Guyenne,Artigues-près-Bordeaux,44.846957,-0.497714,2.006,"Laverie,Station de gonflage,Location de véhicule,Piste poids lourds,Lavage automatique,Lavage manuel,Automate CB 24/24,DAB (Distributeur automatique de billets)",Gironde,33,Nouvelle-Aquitaine,75
34690009,34690,A9 - AIRE DE FABREGUES NORD,Fabrègues,43.548175937549,3.7956014943175,1.99,,Hérault,34,Occitanie,76
91180001,91180,RN 20,Saint-Germain-lès-Arpajon,48.603,2.248,1.99,,Essonne,91,Île-de-France,11
49123002,49123,28 BIS VILLAGE LA RIOTTIERE,Ingrandes-le-Fresne-sur-Loire,47.41024334305,-0.93675465665287,1.999,"Restauration à emporter,Restauration sur place,Station de gonflage,Lavage automatique,Lavage manuel,Automate CB 24/24",Maine-et-Loire,49,Pays de la Loire,52
59400008,59400,58 RUE DE DOUAI,Cambrai,50.185,3.225,1.99,"Toilettes publiques,Relais colis,Boutique alimentaire,Boutique non alimentaire,Vente de pétrole lampant,Station de gonflage,Carburant additivé,Piste poids lourds,Vente de gaz domestique (Butane, Propane),Vente d'additifs carburants",Nord,59,Hauts-de-France,32
49150001,49150,Av. d'Angers,Baugé-en-Anjou,47.54522912429,-0.11035160149824,1.999,"Station de gonflage,Piste poids lourds,Lavage automatique,Lavage manuel,Automate CB 24/24,DAB (Distributeur automatique de billets)",Maine-et-Loire,49,Pays de la Loire,52
89380001,89380,ROUTE DE JOIGNY,Appoigny,47.880826805196,3.5268365139365,1.989,Automate CB 24/24,Yonne,89,Bourgogne-Franche-Comté,27
91380004,91380,7 Avenue Pierre Brossolette,Chilly-Mazarin,48.701,2.319,2.009,,Essonne,91,Île-de-France,11
91370001,91370,BD DU MARECHAL JUIN,Verrières-le-Buisson,48.753,2.273,2.079,,Essonne,91,Île-de-France,11
15290001,15290,35 bis Avenue du 15 Septembre 1945,Le Rouget-Pers,44.855,2.233,2.025,"Toilettes publiques,Boutique non alimentaire,Vente de fioul domestique,Vente de pétrole lampant,Station de gonflage,Lavage automatique,Vente de gaz domestique (Butane, Propane),Automate CB 24/24,DAB (Distributeur automatique de billets)",Cantal,15,Auvergne-Rhône-Alpes,84
31350004,31350,avenue Charles Suran,Boulogne-sur-Gesse,43.285502903295004,0.65090652068242,,"Carburant additivé,Automate CB 24/24",Haute-Garonne,31,Occitanie,76
25500007,25500,4 rue du Clos Jeune,Morteau,47.057508463211,6.6110181743167,2.049,"Laverie,Relais colis,Vente de gaz domestique (Butane, Propane),Automate CB 24/24,DAB (Distributeur automatique de billets)",Doubs,25,Bourgogne-Franche-Comté,27
5000019,5000,"28, Boulevard d'Orient",Gap,44.57,6.105,1.979,"Laverie,Relais colis,Boutique alimentaire,Restauration sur place,Station de gonflage,Vente de gaz domestique (Butane, Propane),Bornes électriques,Automate CB 24/24,DAB (Distributeur automatique de billets)",Hautes-Alpes,5,Provence-Alpes-Côte d'Azur,93
19200007,19200,8 AVENUE PIERRE SEMARD,Ussel,45.556389740201,2.3152420027136,2.019,"Vente de gaz domestique (Butane, Propane),Automate CB 24/24",Corrèze,19,Nouvelle-Aquitaine,75
60120004,60120,84 Avenue du Général Frère,Breteuil,49.635,2.286,1.99,"Boutique alimentaire,Boutique non alimentaire,Station de gonflage,Carburant additivé,Location de véhicule,Piste poids lourds,Lavage automatique,Lavage manuel,Services réparation / entretien,Vente d'additifs carburants,Automate CB 24/24,DAB (Distributeur automatique de billets)",Oise,60,Hauts-de-France,32
19200002,19200,56 Avenue du Général Leclerc,Ussel,45.557,2.302,,"Toilettes publiques,Boutique non alimentaire,Vente de fioul domestique,Station de gonflage,Carburant additivé,Piste poids lourds,Lavage automatique,Lavage manuel,Services réparation / entretien,Vente de gaz domestique (Butane, Propane),Vente d'additifs carburants,Automate CB 24/24,DAB (Distributeur automatique de billets)",Corrèze,19,Nouvelle-Aquitaine,75
93160006,93160,4 Boulevard du Maréchal Foch,Noisy-le-Grand,48.845,2.528,2.039,"Toilettes publiques,Boutique alimentaire,Boutique non alimentaire,Restauration à emporter,Station de gonflage,Location de véhicule,Lavage automatique,Automate CB 24/24,DAB (Distributeur automatique de billets)",Seine-Saint-Denis,93,Île-de-France,11
24260001,24260,AVENUE DE LA LIBERATION,Le Bugue,44.914,0.925,2.039,"Location de véhicule,Lavage automatique,Lavage manuel,Vente de gaz domestique (Butane, Propane),DAB (Distributeur automatique de billets)",Dordogne,24,Nouvelle-Aquitaine,75
92130005,92130,115 Avenue du Général de Gaulle,Issy-les-Moulineaux,48.818,2.277,02.07,,Hauts-de-Seine,92,Île-de-France,11
92140005,92140,448 AV GENERAL DE GAULLE,Clamart,48.78,2.238,02.07,,Hauts-de-Seine,92,Île-de-France,11
68200018,68200,185 AV DE COLMAR,Mulhouse,47.762,7.326,1.99,"Toilettes publiques,Boutique alimentaire,Boutique non alimentaire,Station de gonflage,Carburant additivé,Piste poids lourds,Lavage automatique,Vente de gaz domestique (Butane, Propane),Automate CB 24/24,DAB (Distributeur automatique de billets)",Haut-Rhin,68,Grand Est,44
92260001,92260,21 Avenue Jeanne et Maurice Dolivet,Fontenay-aux-Roses,48.793,2.29,02.07,,Hauts-de-Seine,92,Île-de-France,11
92210003,92210,24 Rue Pasteur,Saint-Cloud,48.842,2.202,02.07,,Hauts-de-Seine,92,Île-de-France,11
4120002,4120,4 rue grande,La Palud-sur-Verdon,43.78,6.342,,"Boutique alimentaire,Boutique non alimentaire,Vente de gaz domestique (Butane, Propane),Vente d'additifs carburants,Automate CB 24/24",Alpes-de-Haute-Provence,4,Provence-Alpes-Côte d'Azur,93
31150010,31150,RUE DES USINESCC TOULOUSE NORD,Fenouillet,43.687548,1.404265747,,"Piste poids lourds,Lavage automatique,Lavage manuel,Vente de gaz domestique (Butane, Propane),DAB (Distributeur automatique de billets)",Haute-Garonne,31,Occitanie,76
10340001,10340,25 Rue du Pont,Les Riceys,47.99651,4.36718,2.149,"Station de gonflage,Carburant additivé,Lavage automatique,Vente de gaz domestique (Butane, Propane)",Aube,10,Grand Est,44
42155001,42155,RUE DE LA BRUYERE,Lentigny,45.992,3.982,1.999,"Laverie,Restauration à emporter,Restauration sur place,Vente de fioul domestique,Station de gonflage,Aire de camping-cars,Location de véhicule,Piste poids lourds,Lavage automatique,Lavage manuel,Vente de gaz domestique (Butane, Propane),Bornes électriques,Automate CB 24/24,DAB (Distributeur automatique de billets)",Loire,42,Auvergne-Rhône-Alpes,84
83600020,83600,100 RDN 7 AV.DE VERDUN,Fréjus,43.43808989,6.7190878000000005,1.99,"Boutique alimentaire,Boutique non alimentaire,Station de gonflage,Carburant additivé,Piste poids lourds,Lavage automatique,Vente de gaz domestique (Butane, Propane),DAB (Distributeur automatique de billets)",Var,83,Provence-Alpes-Côte d'Azur,93
26800007,26800,AUTOROUTE A7 - AIRE PORTE LES VALENCE EST,Portes-lès-Valence,44.864,4.866,1.99,"Toilettes publiques,Douches,Boutique alimentaire,Boutique non alimentaire,Restauration à emporter,Restauration sur place,Station de gonflage,Aire de camping-cars,Piste poids lourds,Espace bébé,Bornes électriques,Wifi,Automate CB 24/24,DAB (Distributeur automatique de billets)",Drôme,26,Auvergne-Rhône-Alpes,84
1300004,1300,RUE DENIS PAPIN,Belley,45.748953,5.708725,1.99,"Carburant additivé,Piste poids lourds,Automate CB 24/24",Ain,1,Auvergne-Rhône-Alpes,84
17600004,17600,204 route de Royan,Médis,45.666,-0.943,,"Laverie,Boutique alimentaire,Restauration à emporter,Station de gonflage,Carburant additivé,Lavage automatique,Lavage manuel,Vente de gaz domestique (Butane, Propane)",Charente-Maritime,17,Nouvelle-Aquitaine,75
8130003,8130,3 Rue Saint-Charles,Attigny,49.479,4.577,,"Boutique alimentaire,Vente de gaz domestique (Butane, Propane),Automate CB 24/24",Ardennes,8,Grand Est,44
45190003,45190,RN 152 Tavers,Tavers,47.766,1.612,2.029,"Toilettes publiques,Relais colis,Boutique alimentaire,Boutique non alimentaire,Restauration à emporter,Restauration sur place,Vente de fioul domestique,Vente de pétrole lampant,Station de gonflage,Location de véhicule,Piste poids lourds,Lavage automatique,Lavage manuel,Espace bébé,Services réparation / entretien,Vente de gaz domestique (Butane, Propane),Bornes électriques,Wifi,Automate CB 24/24,DAB (Distributeur automatique de billets)",Loiret,45,Centre-Val de Loire,24
69380004,69380,473 Route de la Vallée,Civrieux-d'Azergues,45.856,4.704,1.979,"Toilettes publiques,Boutique alimentaire,Boutique non alimentaire,Restauration à emporter,Restauration sur place,Vente de fioul domestique,Vente de pétrole lampant,Station de gonflage,Piste poids lourds,Lavage manuel,Espace bébé,Vente de gaz domestique (Butane, Propane),Vente d'additifs carburants,Automate CB 24/24,DAB (Distributeur automatique de billets)",Rhône,69,Auvergne-Rhône-Alpes,84
35400006,35400,rue de la Flaudais,Saint-Malo,48.625,-1.994,2.002,"Toilettes publiques,Boutique alimentaire,Boutique non alimentaire,Restauration à emporter,Restauration sur place,Bar,Station de gonflage,Carburant additivé,Location de véhicule,Vente de gaz domestique (Butane, Propane),DAB (Distributeur automatique de billets)",Ille-et-Vilaine,35,Bretagne,53
52100009,52100,Rue des Loyes,Saint-Dizier,48.627,4.973,2.016,"Boutique alimentaire,Boutique non alimentaire,Station de gonflage,Location de véhicule,Piste poids lourds,Vente de gaz domestique (Butane, Propane),Automate CB 24/24,DAB (Distributeur automatique de billets)",Haute-Marne,52,Grand Est,44
85430001,85430,Impasse Bellevue,Nieul-le-Dolent,46.5712,-1.50929,1.986,,Vendée,85,Pays de la Loire,52
83500007,83500,Avenue Salvador Allende,La Seyne-sur-Mer,43.08509,5.88123,1.99,DAB (Distributeur automatique de billets),Var,83,Provence-Alpes-Côte d'Azur,93
92410001,92410,191 Rue de Versailles,Ville-d'Avray,48.819,2.168,2.056,,Hauts-de-Seine,92,Île-de-France,11
83600030,83600,26 RUE DU DOCTEUR DONNADIEU,Fréjus,43.431083557022,6.755014805449901,2.059,"Station de gonflage,Lavage automatique,Vente de gaz domestique (Butane, Propane),Automate CB 24/24",Var,83,Provence-Alpes-Côte d'Azur,93
80100011,80100,3 place de l amiral courbet,Abbeville,50.107867347902,1.8317601957873,1.99,"Station de gonflage,Services réparation / entretien,Vente de gaz domestique (Butane, Propane),Vente d'additifs carburants",Somme,80,Hauts-de-France,32
79000015,79000,130 Avenue de NANTES,Saint-Rémy,46.348104000000006,-0.509968,,"Laverie,Station de gonflage,Lavage automatique,Lavage manuel,Vente de gaz domestique (Butane, Propane),Automate CB 24/24",Deux-Sèvres,79,Nouvelle-Aquitaine,75
41400006,41400,60 Route de Tours,Montrichard Val de Cher,47.342,1.178,2.099,"Relais colis,Station de gonflage,Carburant additivé,Automate CB 24/24",Loir-et-Cher,41,Centre-Val de Loire,24
15200004,15200,Avenue de la Gare,Mauriac,45.222,2.34,1.999,"Toilettes publiques,Laverie,Boutique alimentaire,Restauration à emporter,Restauration sur place,Vente de pétrole lampant,Station de gonflage,Piste poids lourds,Vente de gaz domestique (Butane, Propane),Wifi,Automate CB 24/24,DAB (Distributeur automatique de billets)",Cantal,15,Auvergne-Rhône-Alpes,84
84840003,84840,81 Avenue de Montélimar,Lapalud,44.312,4.686,,"Laverie,Relais colis,Boutique alimentaire,Restauration à emporter,Carburant additivé,Vente de gaz domestique (Butane, Propane),Bornes électriques",Vaucluse,84,Provence-Alpes-Côte d'Azur,93
84200008,84200,2875 Route de malaucene,Carpentras,44.08,5.067,2.069,Automate CB 24/24,Vaucluse,84,Provence-Alpes-Côte d'Azur,93
93160004,93160,2 Rue des Hauts-Châteaux,Noisy-le-Grand,48.843,2.577,02.07,,Seine-Saint-Denis,93,Île-de-France,11
93140003,93140,205 Avenue Gallieni,Bondy,48.907,2.489,2.029,,Seine-Saint-Denis,93,Île-de-France,11
93160005,93160,22 Route de Neuilly,Noisy-le-Grand,48.851,2.535,02.07,,Seine-Saint-Denis,93,Île-de-France,11
31600011,31600,68 avenue Jacques Douzans,Muret,43.469,1.329,2.099,"Station de gonflage,Carburant additivé,Lavage automatique,Automate CB 24/24",Haute-Garonne,31,Occitanie,76
76371001,76371,Centre Commercial Le Belvédère,Dieppe,49.91,1.077,,"Toilettes publiques,Relais colis,Boutique alimentaire,Boutique non alimentaire,Restauration à emporter,Restauration sur place,Bar,Vente de fioul domestique,Station de gonflage,Lavage automatique,Lavage manuel,Services réparation / entretien,Vente de gaz domestique (Butane, Propane),Automate CB 24/24,DAB (Distributeur automatique de billets)",Seine-Maritime,76,Normandie,28
77700006,77700,1 RUE SUZANNE MASSON,Coupvray,48.880882982292,2.8039516316236996,2.011,"Station de gonflage,Lavage automatique,Bornes électriques,Vente d'additifs carburants,Wifi,Automate CB 24/24",Seine-et-Marne,77,Île-de-France,11
71230002,71230,ZI de la Saule,Saint-Vallier,46.648,4.34,2.039,"Toilettes publiques,Laverie,Boutique alimentaire,Restauration sur place,Bar,Station de gonflage,Lavage automatique,Lavage manuel,Vente de gaz domestique (Butane, Propane),Vente d'additifs carburants,Automate CB 24/24,DAB (Distributeur automatique de billets)",Saône-et-Loire,71,Bourgogne-Franche-Comté,27
50480001,50480,LES FORGES,Sainte-Mère-Église,49.38,-1.296,1.99,"Relais colis,Boutique alimentaire,Boutique non alimentaire,Station de gonflage,Carburant additivé,Piste poids lourds,Vente de gaz domestique (Butane, Propane),Vente d'additifs carburants,Wifi,Automate CB 24/24",Manche,50,Normandie,28
7100006,7100,Route du 4ème Spahis,Annonay,45.235,4.672,,"Toilettes publiques,Boutique non alimentaire,Station de gonflage,Carburant additivé,Lavage automatique,Lavage manuel,Vente de gaz domestique (Butane, Propane),Vente d'additifs carburants,Automate CB 24/24",Ardèche,7,Auvergne-Rhône-Alpes,84
33370005,33370,Zone Activité les Tabernottes,Yvrac,44.871,-0.469,1.999,"Boutique alimentaire,Vente de fioul domestique,Station de gonflage,Location de véhicule,Piste poids lourds,Lavage automatique,Lavage manuel,Vente de gaz domestique (Butane, Propane),Automate CB 24/24,DAB (Distributeur automatique de billets)",Gironde,33,Nouvelle-Aquitaine,75
21500002,21500,Rue de Dijon,Montbard,47.62499,4.3466,1.99,"Toilettes publiques,Boutique alimentaire,Boutique non alimentaire,Station de gonflage,Carburant additivé,Piste poids lourds,Services réparation / entretien,Vente de gaz domestique (Butane, Propane),DAB (Distributeur automatique de billets)",Côte-d'Or,21,Bourgogne-Franche-Comté,27
13011019,13011,131 route des Camoins,Marseille,43.299,5.5,2.029,"Boutique non alimentaire,Station de gonflage,Piste poids lourds,Lavage automatique,Lavage manuel,Automate CB 24/24",Bouches-du-Rhône,13,Provence-Alpes-Côte d'Azur,93
94100006,94100,99/101 Avenue Foch,Saint-Maur-des-Fossés,48.799,2.5,02.07,Carburant additivé,Val-de-Marne,94,Île-de-France,11
93800003,93800,86 Avenue de Lattre de Tassigny,Épinay-sur-Seine,48.96,2.304,2.068,,Seine-Saint-Denis,93,Île-de-France,11
94000004,94000,22 Avenue Pierre Brossolette,Créteil,48.791,2.462,2.079,,Val-de-Marne,94,Île-de-France,11
64520001,64520,2 Rue Saint-Jacques,Bidache,43.482,-1.144,,,Pyrénées-Atlantiques,64,Nouvelle-Aquitaine,75
94170002,94170,264 Avenue du Général de Gaulle,Le Perreux-sur-Marne,48.851,2.495,02.07,Automate CB 24/24,Val-de-Marne,94,Île-de-France,11
94190002,94190,20 Rue Winston Churchill,Villeneuve-Saint-Georges,48.754,2.45,2.033,,Val-de-Marne,94,Île-de-France,11
33730001,33730,15 Rue Lafon Isore,Villandraut,44.46,-0.375,,"Toilettes publiques,Boutique non alimentaire,Vente de fioul domestique,Vente de gaz domestique (Butane, Propane),Automate CB 24/24,DAB (Distributeur automatique de billets)",Gironde,33,Nouvelle-Aquitaine,75
94250001,94250,67 Avenue Raspail,Gentilly,48.814,2.348,2.128,,Val-de-Marne,94,Île-de-France,11
77160002,77160,Avenue de la Voulzie,Provins,48.548,3.292,1.983,"Boutique alimentaire,Boutique non alimentaire,Vente de gaz domestique (Butane, Propane)",Seine-et-Marne,77,Île-de-France,11
16100004,16100,105 Rue Basse Saint-Martin,Cognac,45.686,-0.338,1.969,"Toilettes publiques,Boutique alimentaire,Boutique non alimentaire,Restauration à emporter,Restauration sur place,Bar,Vente de fioul domestique,Station de gonflage,Location de véhicule,Lavage automatique,Lavage manuel,Espace bébé,Vente de gaz domestique (Butane, Propane),Bornes électriques,Vente d'additifs carburants,Wifi,Automate CB 24/24,DAB (Distributeur automatique de billets)",Charente,16,Nouvelle-Aquitaine,75
94380002,94380,ROUTE DE LA POMPADOUR,Bonneuil-sur-Marne,48.765,2.478,02.07,,Val-de-Marne,94,Île-de-France,11
94370003,94370,1 Rue de Paris,Sucy-en-Brie,48.773,2.5,2.079,,Val-de-Marne,94,Île-de-France,11
94400003,94400,159 Avenue Rouget de l'Isle,Vitry-sur-Seine,48.782,2.395,2.079,,Val-de-Marne,94,Île-de-France,11
62218002,62218,Rue de l'Abbaye,Loison-sous-Lens,50.448,2.865,2.013,"Boutique alimentaire,Boutique non alimentaire,Vente de fioul domestique,Location de véhicule,Vente de gaz domestique (Butane, Propane),Bornes électriques,Automate CB 24/24,DAB (Distributeur automatique de billets)",Pas-de-Calais,62,Hauts-de-France,32
13090018,13090,1140 RTE AVIGNON QU.CELONY RN7,Aix-en-Provence,43.557,5.418,1.99,"Boutique alimentaire,Boutique non alimentaire,Restauration à emporter,Station de gonflage,Lavage automatique,Vente de gaz domestique (Butane, Propane),Automate CB 24/24",Bouches-du-Rhône,13,Provence-Alpes-Côte d'Azur,93
34110002,34110,27 avenue du marechal juin,Frontignan,43.449,3.753,1.999,"Laverie,Piste poids lourds,Lavage automatique,Lavage manuel,Automate CB 24/24",Hérault,34,Occitanie,76
94600003,94600,14 Boulevard de Stalingrad,Thiais,48.768,2.403,02.07,,Val-de-Marne,94,Île-de-France,11
94700005,94700,5 Avenue Léon Blum,Maisons-Alfort,48.802,2.436,2.079,,Val-de-Marne,94,Île-de-France,11
51350001,51350,Route de louvois,Cormontreuil,49.216,4.057,1.991,"Toilettes publiques,Relais colis,Boutique alimentaire,Boutique non alimentaire,Restauration à emporter,Restauration sur place,Bar,Vente de fioul domestique,Vente de pétrole lampant,Station de gonflage,Carburant additivé,Location de véhicule,Lavage automatique,Lavage manuel,Espace bébé,Vente de gaz domestique (Butane, Propane),Bornes électriques,Vente d'additifs carburants,Wifi,Automate CB 24/24,DAB (Distributeur automatique de billets)",Marne,51,Grand Est,44
43290002,43290,30 AVENUE DES CEVENNES,Montfaucon-en-Velay,45.181359373511995,4.3141124833937,,"Boutique non alimentaire,Station de gonflage,Lavage manuel,Services réparation / entretien,Vente de gaz domestique (Butane, Propane),Automate CB 24/24",Haute-Loire,43,Auvergne-Rhône-Alpes,84
95100030,95100,RUE JACQUES BREL,Argenteuil,48.95763,2.27971,1.99,"Toilettes publiques,Boutique alimentaire,Boutique non alimentaire,Station de gonflage,Carburant additivé,Lavage automatique,Lavage manuel,Vente de gaz domestique (Butane, Propane),DAB (Distributeur automatique de billets)",Val-d'Oise,95,Île-de-France,11
6640002,6640,QUARTIER LE PEYRON,Saint-Jeannet,43.743572997273,7.1463555621190995,2.144,"Station de gonflage,Vente de gaz domestique (Butane, Propane),Automate CB 24/24",Alpes-Maritimes,6,Provence-Alpes-Côte d'Azur,93
61250005,61250,61 route de Bretagne,Condé-sur-Sarthe,48.433335571932,0.06257896013097,2.019,Automate CB 24/24,Orne,61,Normandie,28
95130001,95130,9 Boulevard du Bel Air,Franconville,48.986,2.238,1.999,,Val-d'Oise,95,Île-de-France,11
52540001,62540,RUE PASTEUR,Marles-les-Mines,50.503,2.508,1.989,"Toilettes publiques,Relais colis,Vente de pétrole lampant,Location de véhicule,Vente de gaz domestique (Butane, Propane),Automate CB 24/24,DAB (Distributeur automatique de billets)",Pas-de-Calais,62,Hauts-de-France,32
95220003,95220,61 Boulevard DU HAVRE,Herblay-sur-Seine,49.006,2.172,02.07,,Val-d'Oise,95,Île-de-France,11
68200025,68200,"151, AVENUE DE COLMAR",Mulhouse,47.758430999999995,7.33,2.169,"Toilettes publiques,Boutique alimentaire,Vente de fioul domestique,Station de gonflage,Carburant additivé,Vente de gaz domestique (Butane, Propane)",Haut-Rhin,68,Grand Est,44
95400003,95400,100 Avenue de la République,Arnouville,48.982,2.431,2.079,,Val-d'Oise,95,Île-de-France,11
85700002,85700,35 Rue Charles Largeteau,Pouzauges,46.775,-0.846,1.973,"Restauration sur place,Station de gonflage,Aire de camping-cars,Location de véhicule,Piste poids lourds,Lavage automatique,Lavage manuel,Vente de gaz domestique (Butane, Propane),Automate CB 24/24,DAB (Distributeur automatique de billets)",Vendée,85,Pays de la Loire,52
85670002,85670,8 Rue Nationale,Falleron,46.882,-1.697,2.28,"Toilettes publiques,Station de gonflage,Services réparation / entretien,Vente d'additifs carburants,Automate CB 24/24",Vendée,85,Pays de la Loire,52
12160002,12160,241 Avenue de Marengo,Baraqueville,44.278,2.43,,"Toilettes publiques,Boutique non alimentaire,Station de gonflage,Piste poids lourds,Services réparation / entretien,Vente de gaz domestique (Butane, Propane),Wifi,Automate CB 24/24",Aveyron,12,Occitanie,76
78885001,78180,PLACE JOEL LE THEULE,Montigny-le-Bretonneux,48.786,2.043,2.044,"Station de gonflage,Automate CB 24/24,DAB (Distributeur automatique de billets)",Yvelines,78,Île-de-France,11
95600002,95600,5 Avenue Voltaire,Eaubonne,48.994,2.28,2.013,,Val-d'Oise,95,Île-de-France,11
95570007,95570,RN1,Moisselles,49.041,2.343,02.02,"Station de gonflage,Carburant additivé,Piste poids lourds,Lavage automatique,DAB (Distributeur automatique de billets)",Val-d'Oise,95,Île-de-France,11
63122001,63122,1 Rue du Château - D2089,Saint-Genès-Champanelle,45.705,3.022,2.1,"Station de gonflage,Carburant additivé,Lavage manuel,Services réparation / entretien,Vente de gaz domestique (Butane, Propane),Automate CB 24/24,DAB (Distributeur automatique de billets)",Puy-de-Dôme,63,Auvergne-Rhône-Alpes,84
54470002,54470,ZA de la Louviére,Thiaucourt-Regniéville,48.947,5.876,2.019,"Laverie,Relais colis,Boutique alimentaire,Restauration à emporter,Location de véhicule,Lavage manuel,Vente de gaz domestique (Butane, Propane),Bornes électriques,DAB (Distributeur automatique de billets)",Meurthe-et-Moselle,54,Grand Est,44
95800003,95800,Boulevard d'Osny,Cergy,49.052993645837,2.0463281651542,2.023,,Val-d'Oise,95,Île-de-France,11
31330005,31330,18 Av. Lazare Carnot,Grenade,43.768739365359004,1.295984410997,2.12,"Toilettes publiques,Restauration à emporter,Station de gonflage,Carburant additivé,Automate CB 24/24",Haute-Garonne,31,Occitanie,76
54500008,54500,2 AVENUE DE BOURGOGNE,Vandœuvre-lès-Nancy,48.64965,6.14633,1.99,,Meurthe-et-Moselle,54,Grand Est,44
74800001,74800,Avenue de la Libération,La Roche-sur-Foron,46.06989,6.30528,,"Boutique alimentaire,Boutique non alimentaire,Vente de fioul domestique,Station de gonflage,Carburant additivé,Piste poids lourds,Lavage automatique,Lavage manuel,Services réparation / entretien,DAB (Distributeur automatique de billets)",Haute-Savoie,74,Auvergne-Rhône-Alpes,84
39120002,39120,Route de Longwy,Chaussin,46.958,5.409,2.019,"Boutique alimentaire,Boutique non alimentaire,Station de gonflage,Piste poids lourds,Vente de gaz domestique (Butane, Propane),DAB (Distributeur automatique de billets)",Jura,39,Bourgogne-Franche-Comté,27
17201001,17200,Rue Laurent-Antoine de Lavoisier,Royan,45.632,-0.992,2.035,"Boutique alimentaire,Boutique non alimentaire,Vente de fioul domestique,Piste poids lourds,Vente de gaz domestique (Butane, Propane),DAB (Distributeur automatique de billets)",Charente-Maritime,17,Nouvelle-Aquitaine,75
27310008,27310,405 RUE DES PORTES,Bourg-Achard,49.352603499999994,0.8063697999999999,2.029,"Toilettes publiques,Relais colis,Boutique alimentaire,Boutique non alimentaire,Station de gonflage,Location de véhicule,Lavage manuel,Vente de gaz domestique (Butane, Propane),DAB (Distributeur automatique de billets)",Eure,27,Normandie,28
63140001,63140,65 avenue de Belgique,Châtel-Guyon,45.923,3.063,1.99,"Boutique alimentaire,Boutique non alimentaire,Station de gonflage,Carburant additivé,Piste poids lourds,Lavage automatique,Lavage manuel,Services réparation / entretien,Vente de gaz domestique (Butane, Propane),Vente d'additifs carburants,Automate CB 24/24",Puy-de-Dôme,63,Auvergne-Rhône-Alpes,84
84220003,84220,ZA PIED ROUSSET LES DEVENS,Roussillon,43.864,5.291,,"Piste poids lourds,Automate CB 24/24",Vaucluse,84,Provence-Alpes-Côte d'Azur,93
79370001,79370,22 rue des Acacias,Celles-sur-Belle,46.268,-0.224,1.99,"Toilettes publiques,Laverie,Relais colis,Boutique alimentaire,Boutique non alimentaire,Vente de pétrole lampant,Piste poids lourds,Vente de gaz domestique (Butane, Propane),Wifi,Automate CB 24/24,DAB (Distributeur automatique de billets)",Deux-Sèvres,79,Nouvelle-Aquitaine,75
83520001,83520,QUARTIER LA GARONNE,Roquebrune-sur-Argens,43.4393291651,6.654951635940001,,"Boutique alimentaire,Boutique non alimentaire,Station de gonflage,Carburant additivé,Piste poids lourds,Lavage automatique,Lavage manuel,Services réparation / entretien,Vente de gaz domestique (Butane, Propane)",Var,83,Provence-Alpes-Côte d'Azur,93
65700002,65700,centre commercial Val d'Adour,Maubourguet,43.441,0.042,2.019,"Station de gonflage,Aire de camping-cars,Lavage manuel,Vente de gaz domestique (Butane, Propane),DAB (Distributeur automatique de billets)",Hautes-Pyrénées,65,Occitanie,76
51300006,51300,208 AVENUE DE CHAMPAGNE,Frignicourt,48.712604588400005,4.59023351401,2.045,"Station de gonflage,Carburant additivé,Location de véhicule,Piste poids lourds,Lavage automatique,Lavage manuel,Vente de gaz domestique (Butane, Propane),DAB (Distributeur automatique de billets)",Marne,51,Grand Est,44
9210001,9210,La Sinsole,Lézat-sur-Lèze,43.281,1.348,2.009,"Station de gonflage,Piste poids lourds,Lavage automatique,Lavage manuel",Ariège,9,Occitanie,76
62880001,62880,53 Rue Joseph Mattei,Annay,50.459,2.885,,"Vente de gaz domestique (Butane, Propane),Automate CB 24/24",Pas-de-Calais,62,Hauts-de-France,32
3800006,3800,12 avenue des Portes Occitanes,Gannat,46.08,3.201,2.031,"Toilettes publiques,Boutique non alimentaire,Station de gonflage,Carburant additivé,Piste poids lourds,Lavage automatique,Lavage manuel,Services réparation / entretien,Vente de gaz domestique (Butane, Propane)",Allier,3,Auvergne-Rhône-Alpes,84
1640003,1640,573 route de Geneve,Saint-Jean-le-Vieux,46.03487603046899,5.3894526948339,,Automate CB 24/24,Ain,1,Auvergne-Rhône-Alpes,84
19100014,19100,Boulevard Brune,Brive-la-Gaillarde,45.153,1.536,2.119,"Station de gonflage,Carburant additivé,Automate CB 24/24",Corrèze,19,Nouvelle-Aquitaine,75
40465002,40465,"642, avenue Robert Labeyrie",Pontonx-sur-l'Adour,43.78529,-0.93105,2.029,"Vente de gaz domestique (Butane, Propane),DAB (Distributeur automatique de billets)",Landes,40,Nouvelle-Aquitaine,75
72380001,72380,zone artisanale Prairie des Moulins,Sainte-Jamme-sur-Sarthe,48.145,0.17,2.019,"Toilettes publiques,Laverie,Relais colis,Boutique alimentaire,Boutique non alimentaire,Restauration à emporter,Restauration sur place,Station de gonflage,Location de véhicule,Lavage automatique,Lavage manuel,Vente de gaz domestique (Butane, Propane),Automate CB 24/24,DAB (Distributeur automatique de billets)",Sarthe,72,Pays de la Loire,52
10360001,10360,14 rue du bocage,Essoyes,48.0606395,4.5380332,1.999,"Relais colis,Boutique alimentaire,Boutique non alimentaire,Restauration à emporter,Aire de camping-cars,Bornes électriques,Automate CB 24/24",Aube,10,Grand Est,44
33320003,33320,170 Avenue du Taillan Médoc,Eysines,44.881,-0.651,2.049,"Laverie,Station de gonflage,Vente de gaz domestique (Butane, Propane),Automate CB 24/24,DAB (Distributeur automatique de billets)",Gironde,33,Nouvelle-Aquitaine,75
78390003,78390,11 Avenue Jean Jaurès,Bois-d'Arcy,48.8,2.038,2.045,"Toilettes publiques,Relais colis,Boutique alimentaire,Boutique non alimentaire,Restauration à emporter,Restauration sur place,Station de gonflage,Location de véhicule,Services réparation / entretien,Vente de gaz domestique (Butane, Propane),Bornes électriques,Vente d'additifs carburants,DAB (Distributeur automatique de billets)",Yvelines,78,Île-de-France,11
12100006,12100,Avenue de Saint Affrique,Creissels,44.081,3.042,2.049,"Toilettes publiques,Laverie,Relais colis,Boutique alimentaire,Restauration à emporter,Restauration sur place,Bar,Vente de fioul domestique,Vente de pétrole lampant,Station de gonflage,Carburant additivé,Location de véhicule,Piste poids lourds,Lavage automatique,Lavage manuel,Vente de gaz domestique (Butane, Propane),Bornes électriques,Vente d'additifs carburants,Wifi,Automate CB 24/24,DAB (Distributeur automatique de billets)",Aveyron,12,Occitanie,76
71210010,71210,45 avenue de la République,Montchanin,46.753,4.468,,"Station de gonflage,Carburant additivé,Piste poids lourds,Lavage automatique,Lavage manuel,Services réparation / entretien,Automate CB 24/24,DAB (Distributeur automatique de billets)",Saône-et-Loire,71,Bourgogne-Franche-Comté,27
21320007,21320,A6 AIRE DES LOCHERES,Éguilly,47.309,4.501,2.349,"Toilettes publiques,Douches,Boutique alimentaire,Boutique non alimentaire,Restauration sur place,Station de gonflage,Carburant additivé,Piste poids lourds,Espace bébé,Bornes électriques,Wifi,Automate CB 24/24,DAB (Distributeur automatique de billets)",Côte-d'Or,21,Bourgogne-Franche-Comté,27
83600024,83600,1239 AV DE LATTRE DE TASSIGNY,Fréjus,43.43,6.758,2.039,"Station de gonflage,Carburant additivé,Lavage automatique,Automate CB 24/24",Var,83,Provence-Alpes-Côte d'Azur,93
68270003,68270,Rue de Kingersheim,Wittenheim,47.805,7.337,1.986,"Laverie,Vente de fioul domestique,Location de véhicule,Vente de gaz domestique (Butane, Propane),DAB (Distributeur automatique de billets)",Haut-Rhin,68,Grand Est,44
66028001,66000,AVENUE D'ESPAGNE,Perpignan,42.668,2.884,1.989,"Laverie,Restauration à emporter,Restauration sur place,Station de gonflage,Carburant additivé,Piste poids lourds,Lavage automatique,Lavage manuel,Services réparation / entretien,Vente de gaz domestique (Butane, Propane),Bornes électriques,Automate CB 24/24,DAB (Distributeur automatique de billets)",Pyrénées-Orientales,66,Occitanie,76
21150002,21150,Avenue de Dijon,Venarey-les-Laumes,47.54,4.461,2.059,"Toilettes publiques,Laverie,Vente de gaz domestique (Butane, Propane),Automate CB 24/24",Côte-d'Or,21,Bourgogne-Franche-Comté,27
69500009,69500,BD LAURENT BONNEVAY,Bron,45.739,4.905,1.99,"Toilettes publiques,Boutique alimentaire,Boutique non alimentaire,Restauration à emporter,Station de gonflage,Carburant additivé,Piste poids lourds,Lavage automatique,Vente de gaz domestique (Butane, Propane),Bornes électriques,Vente d'additifs carburants,Wifi,Automate CB 24/24",Rhône,69,Auvergne-Rhône-Alpes,84
61230005,61230,ROUTE D'ALENCON,Gacé,48.789,0.294,1.99,"Toilettes publiques,Boutique alimentaire,Boutique non alimentaire,Station de gonflage,Location de véhicule,Piste poids lourds,Services réparation / entretien,Vente de gaz domestique (Butane, Propane),Automate CB 24/24",Orne,61,Normandie,28
49330004,49330,ROUTE D'ANGERS,Les Hauts-d'Anjou,47.664215062238,-0.5604599008804501,,Location de véhicule,Maine-et-Loire,49,Pays de la Loire,52
81000003,81000,RouTE DE Saint JUERY LA RENAUDIE,Albi,43.938,2.183,1.99,"Boutique non alimentaire,Carburant additivé,Vente de gaz domestique (Butane, Propane),Automate CB 24/24",Tarn,81,Occitanie,76
33460003,33460,13 avenue de soubeyran,Arsac,44.994,-0.693,,"Toilettes publiques,Boutique non alimentaire,Station de gonflage,Carburant additivé,Piste poids lourds,Services réparation / entretien,Vente d'additifs carburants,Wifi,Automate CB 24/24",Gironde,33,Nouvelle-Aquitaine,75
85150001,85150,"1 rue des Blés, La Mothe Achard",Les Achards,46.607,-1.664,1.996,"Toilettes publiques,Laverie,Relais colis,Boutique alimentaire,Boutique non alimentaire,Restauration à emporter,Restauration sur place,Bar,Vente de pétrole lampant,Station de gonflage,Carburant additivé,Aire de camping-cars,Location de véhicule,Piste poids lourds,Lavage automatique,Lavage manuel,Vente de gaz domestique (Butane, Propane),Bornes électriques,Wifi,Automate CB 24/24,DAB (Distributeur automatique de billets)",Vendée,85,Pays de la Loire,52
29400003,29400,137 Avenue Maréchal Foch,Landivisiau,48.515,-4.054,2.002,"Station de gonflage,Piste poids lourds,Lavage automatique,Lavage manuel,Automate CB 24/24",Finistère,29,Bretagne,53
72110002,72110,3 rue du Perche,Saint-Cosme-en-Vairais,48.277,0.461,2.069,"Toilettes publiques,Laverie,Station de gonflage,Piste poids lourds,Lavage manuel,Vente de gaz domestique (Butane, Propane),Automate CB 24/24",Sarthe,72,Pays de la Loire,52
33550002,33550,1 Route de Créon,Langoiran,44.71373,-0.39435,2.029,"Vente de fioul domestique,Lavage manuel,Vente de gaz domestique (Butane, Propane),DAB (Distributeur automatique de billets)",Gironde,33,Nouvelle-Aquitaine,75
47000009,47000,"NETTO, 530 AVENUE LEON BLUM",Agen,44.211,0.647,,"Laverie,Boutique alimentaire,Vente de pétrole lampant,Station de gonflage,Lavage automatique,Lavage manuel,Automate CB 24/24",Lot-et-Garonne,47,Nouvelle-Aquitaine,75
91190012,91190,27 AV DU GENERAL LECLERC,Gif-sur-Yvette,48.703,2.128,2.089,"Station de gonflage,Carburant additivé,Automate CB 24/24",Essonne,91,Île-de-France,11
50500003,50500,Chemin de la Chuque,Carentan-les-Marais,49.302,-1.231,1.989,"Toilettes publiques,Relais colis,Boutique alimentaire,Boutique non alimentaire,Restauration à emporter,Restauration sur place,Location de véhicule,Vente de gaz domestique (Butane, Propane),Bornes électriques,Wifi,Automate CB 24/24,DAB (Distributeur automatique de billets)",Manche,50,Normandie,28
66250001,66250,Route du Barcarès,Saint-Laurent-de-la-Salanque,42.773,3.011,1.99,"Boutique alimentaire,Boutique non alimentaire,Vente de fioul domestique,Station de gonflage,Carburant additivé,Piste poids lourds,Lavage automatique,Lavage manuel,Services réparation / entretien,Vente de gaz domestique (Butane, Propane),Vente d'additifs carburants,Automate CB 24/24",Pyrénées-Orientales,66,Occitanie,76
66510001,66150,Route d'Amélie les Bains,Arles-sur-Tech,42.46292,2.63868,,"Boutique alimentaire,Boutique non alimentaire,Vente de fioul domestique,Station de gonflage,Carburant additivé,Piste poids lourds,Lavage automatique,Lavage manuel,Services réparation / entretien,DAB (Distributeur automatique de billets)",Pyrénées-Orientales,66,Occitanie,76
83150001,83150,1103 Avenue Dei Reganeu,Bandol,43.153966638366,5.7443576756247,1.979,"Laverie,Relais colis,Station de gonflage,Location de véhicule,Piste poids lourds,Vente de gaz domestique (Butane, Propane),Automate CB 24/24,DAB (Distributeur automatique de billets)",Var,83,Provence-Alpes-Côte d'Azur,93
73310002,73310,ZAE DE SAUMONT,Ruffieux,45.846422494013005,5.837168340167101,1.999,"Toilettes publiques,Boutique alimentaire,Location de véhicule,Piste poids lourds,Vente de gaz domestique (Butane, Propane),DAB (Distributeur automatique de billets)",Savoie,73,Auvergne-Rhône-Alpes,84
45320005,45320,4 ROUTE DE SENS,Courtenay,48.041,3.063,2.21,"Toilettes publiques,Boutique alimentaire,Boutique non alimentaire,Station de gonflage,Carburant additivé,Services réparation / entretien,Vente de gaz domestique (Butane, Propane),Wifi,Automate CB 24/24",Loiret,45,Centre-Val de Loire,24
71400012,71400,"15, AVENUE DE LA REPUBLIQUE",Autun,46.956,4.295,,"Relais colis,Boutique alimentaire,Station de gonflage,Piste poids lourds,Lavage automatique,Vente d'additifs carburants,Wifi",Saône-et-Loire,71,Bourgogne-Franche-Comté,27
79100009,79100,2 PASSAGE DU COMMERCE,Thouars,46.992655218168004,-0.23625547504378,,"Aire de camping-cars,Bornes électriques,Automate CB 24/24",Deux-Sèvres,79,Nouvelle-Aquitaine,75
57100007,57100,2 RUE STEPHEN LIEGEARD ROND POINT MERLIN,Thionville,49.352,6.16,1.99,"Boutique alimentaire,Boutique non alimentaire,Station de gonflage,Carburant additivé,Lavage automatique,Lavage manuel,Vente de gaz domestique (Butane, Propane),Automate CB 24/24",Moselle,57,Grand Est,44
30700003,30700,10 CROIX PALMIER,Uzès,44.00805,4.41802,,"Boutique alimentaire,Boutique non alimentaire,Vente de fioul domestique,Station de gonflage,Carburant additivé,Piste poids lourds,Lavage automatique,Lavage manuel,Services réparation / entretien,DAB (Distributeur automatique de billets)",Gard,30,Occitanie,76
29590001,29590,ZONE DE QUIELLA,Le Faou,48.298,-4.17,1.983,"Laverie,Relais colis,Restauration à emporter,Location de véhicule,Piste poids lourds,Lavage automatique,Lavage manuel,Vente de gaz domestique (Butane, Propane),Automate CB 24/24",Finistère,29,Bretagne,53
33370007,33370,Bois Menu - Val Laurence,Fargues-Saint-Hilaire,44.825,-0.444,2.0,"Relais colis,Boutique alimentaire,Station de gonflage,Location de véhicule,Piste poids lourds,Lavage automatique,Lavage manuel,Vente de gaz domestique (Butane, Propane),DAB (Distributeur automatique de billets)",Gironde,33,Nouvelle-Aquitaine,75
8210001,8210,Avenue de la Paix,Mouzon,49.61023,5.07788,2.163,"Boutique alimentaire,Boutique non alimentaire,Vente de fioul domestique,Station de gonflage,Carburant additivé,Piste poids lourds,Lavage automatique,Lavage manuel,Services réparation / entretien,DAB (Distributeur automatique de billets)",Ardennes,8,Grand Est,44
62219001,62219,Avenue des Frais Fonds,Arques,50.735,2.274,1.99,"Station de gonflage,Piste poids lourds,Vente de gaz domestique (Butane, Propane),Automate CB 24/24,DAB (Distributeur automatique de billets)",Pas-de-Calais,62,Hauts-de-France,32
1750001,1750,223 route de Bourg-en-Bresse,Replonges,46.299,4.881,,"Laverie,Relais colis,Location de véhicule,Lavage automatique,Vente de gaz domestique (Butane, Propane),DAB (Distributeur automatique de billets)",Ain,1,Auvergne-Rhône-Alpes,84
13420001,13420,553 ROUTE DU VAISSEAU,Gémenos,43.279,5.615,1.99,"Toilettes publiques,Vente de fioul domestique,Station de gonflage,Carburant additivé,Piste poids lourds,Vente de gaz domestique (Butane, Propane),DAB (Distributeur automatique de billets)",Bouches-du-Rhône,13,Provence-Alpes-Côte d'Azur,93
44120005,44120,BOULEVARD DE L'EUROPE,Vertou,47.173,-1.474,1.99,"Boutique alimentaire,Boutique non alimentaire,Station de gonflage,Carburant additivé,Piste poids lourds,Lavage automatique,Services réparation / entretien,Vente de gaz domestique (Butane, Propane),Vente d'additifs carburants,Wifi,Automate CB 24/24",Loire-Atlantique,44,Pays de la Loire,52
57940001,57940,de l'Arc Mosellan,Metzervisse,49.320210046711,6.2782854114496,2.099,DAB (Distributeur automatique de billets),Moselle,57,Grand Est,44
91430003,91430,ROUTE NATIONALE 444,Igny,48.735,2.225,2.149,"Toilettes publiques,Boutique alimentaire,Boutique non alimentaire,Station de gonflage,Carburant additivé,Piste poids lourds,Lavage automatique,Automate CB 24/24",Essonne,91,Île-de-France,11
47800004,47800,12 place Martignac,Miramont-de-Guyenne,44.6,0.359,,"Boutique non alimentaire,Vente de fioul domestique,Carburant additivé,Piste poids lourds,Vente de gaz domestique (Butane, Propane),Automate CB 24/24",Lot-et-Garonne,47,Nouvelle-Aquitaine,75
82240001,82240,"1, AVENUE MARCEL LACASSAGNE",Septfonds,44.17787,1.62304,2.049,"Toilettes publiques,Boutique alimentaire,Boutique non alimentaire,Vente de fioul domestique,Vente de pétrole lampant,Station de gonflage,Carburant additivé,DAB (Distributeur automatique de billets)",Tarn-et-Garonne,82,Occitanie,76
4320001,4320,STATION RN 4202,Entrevaux,43.949,6.81,2.129,"Toilettes publiques,Boutique alimentaire,Vente de fioul domestique,Station de gonflage,Carburant additivé,Piste poids lourds,Services réparation / entretien,Vente de gaz domestique (Butane, Propane),DAB (Distributeur automatique de billets)",Alpes-de-Haute-Provence,4,Provence-Alpes-Côte d'Azur,93
13180001,13180,AIRE DE REBUTY A55,Le Rove,43.392295526141005,5.2569421627957,2.299,"Toilettes publiques,Douches,Boutique alimentaire,Bar,Station de gonflage,Carburant additivé,Espace bébé",Bouches-du-Rhône,13,Provence-Alpes-Côte d'Azur,93
10500002,10500,Rue du Général P.decouz,Brienne-le-Château,48.399,4.518,2.079,"Laverie,DAB (Distributeur automatique de billets)",Aube,10,Grand Est,44
28330003,28330,16 Avenue Jean Moulin,Authon-du-Perche,48.194,0.899,1.999,"Laverie,Relais colis,Boutique alimentaire,Boutique non alimentaire,Restauration à emporter,Vente de gaz domestique (Butane, Propane),Automate CB 24/24",Eure-et-Loir,28,Centre-Val de Loire,24
34920001,34920,Route de Jacou,Le Crès,43.659613186824,3.9361696295143,2.023,"Boutique alimentaire,Restauration à emporter,Station de gonflage,Location de véhicule,Piste poids lourds,Lavage automatique,Vente de gaz domestique (Butane, Propane),DAB (Distributeur automatique de billets)",Hérault,34,Occitanie,76
26140003,26140,LES BUIS,Anneyron,45.274,4.897,1.999,"Laverie,Relais colis,Station de gonflage,Aire de camping-cars,Piste poids lourds,Vente de gaz domestique (Butane, Propane),Bornes électriques,Vente d'additifs carburants,Automate CB 24/24,DAB (Distributeur automatique de billets)",Drôme,26,Auvergne-Rhône-Alpes,84
11150001,11150,zae avenue de la preuilhe,Bram,43.241,2.101,2.049,"Toilettes publiques,Laverie,Relais colis,Boutique alimentaire,Boutique non alimentaire,Location de véhicule,Piste poids lourds,Lavage automatique,Lavage manuel,Vente de gaz domestique (Butane, Propane),DAB (Distributeur automatique de billets)",Aude,11,Occitanie,76
5230008,5230,RN 94 LA GRANDE ILE,Chorges,44.551639379107996,6.255590835903001,,,Hautes-Alpes,5,Provence-Alpes-Côte d'Azur,93
33000014,33000,26 Boulevard Pierre 1er,Bordeaux,44.855,-0.592,2.069,"Station de gonflage,Carburant additivé,Automate CB 24/24",Gironde,33,Nouvelle-Aquitaine,75
1630005,1630,50 Rue de la Faucille,Saint-Genis-Pouilly,46.253550323499006,6.0270333349454,2.009,,Ain,1,Auvergne-Rhône-Alpes,84
22120005,22120,Rue de l'Argentaie,Quessoy,48.422,-2.656,1.999,"Laverie,Relais colis,Station de gonflage,Lavage manuel,Vente de gaz domestique (Butane, Propane),Automate CB 24/24,DAB (Distributeur automatique de billets)",Côtes-d'Armor,22,Bretagne,53
85340001,85340,73 Rue du 8 Mai 1945,Les Sables-d'Olonne,46.543,-1.772,1.966,"Toilettes publiques,Laverie,Relais colis,Boutique alimentaire,Restauration sur place,Bar,Station de gonflage,Location de véhicule,Piste poids lourds,Lavage automatique,Lavage manuel,Vente de gaz domestique (Butane, Propane),Wifi,Automate CB 24/24,DAB (Distributeur automatique de billets)",Vendée,85,Pays de la Loire,52
71700009,71700,22 avenue du Clos Mouron,Tournus,46.573,4.904,2.049,"Toilettes publiques,Douches,Relais colis,Boutique alimentaire,Boutique non alimentaire,Restauration à emporter,Restauration sur place,Station de gonflage,Carburant additivé,Piste poids lourds,Vente de gaz domestique (Butane, Propane),Vente d'additifs carburants,Automate CB 24/24,DAB (Distributeur automatique de billets)",Saône-et-Loire,71,Bourgogne-Franche-Comté,27
42590001,42590,661 rue de la République,Neulise,45.908809000000005,4.1785,,"Location de véhicule,Lavage manuel,Services réparation / entretien,Vente de gaz domestique (Butane, Propane),Automate CB 24/24",Loire,42,Auvergne-Rhône-Alpes,84
93410002,93410,64 Rue de Meaux,Vaujours,48.935,2.567,2.159,"Boutique alimentaire,Boutique non alimentaire,Station de gonflage,Carburant additivé,Lavage automatique,Vente de gaz domestique (Butane, Propane)",Seine-Saint-Denis,93,Île-de-France,11
93300001,93300,43 Avenue du Président Roosevelt,Aubervilliers,48.918,2.379,2.149,"Station de gonflage,Carburant additivé,Automate CB 24/24",Seine-Saint-Denis,93,Île-de-France,11
4360001,4360,QUARTIER SAINT JEAN,Moustiers-Sainte-Marie,43.844,6.215,1.99,"Boutique non alimentaire,Carburant additivé,Vente de gaz domestique (Butane, Propane),Automate CB 24/24",Alpes-de-Haute-Provence,4,Provence-Alpes-Côte d'Azur,93
15700001,15700,29 Avenue des Estourocs,Pleaux,45.133,2.22,2.15,"Boutique non alimentaire,DAB (Distributeur automatique de billets)",Cantal,15,Auvergne-Rhône-Alpes,84
76320002,76320,Route de Pont-de-l'Arche,Saint-Pierre-lès-Elbeuf,49.29,01.04,1.99,"Toilettes publiques,Laverie,Relais colis,Boutique alimentaire,Boutique non alimentaire,Restauration à emporter,Restauration sur place,Bar,Vente de fioul domestique,Vente de pétrole lampant,Station de gonflage,Carburant additivé,Lavage automatique,Espace bébé,Services réparation / entretien,Vente de gaz domestique (Butane, Propane),Bornes électriques,Vente d'additifs carburants,Wifi,Automate CB 24/24,DAB (Distributeur automatique de billets)",Seine-Maritime,76,Normandie,28
47140002,47140,Avenue de la Myre Mory,Saint-Sylvestre-sur-Lot,44.39673,0.80632,2.009,"Vente de gaz domestique (Butane, Propane),DAB (Distributeur automatique de billets)",Lot-et-Garonne,47,Nouvelle-Aquitaine,75
22500003,22500,"Rue Raymond Pellier Route De Lanvollon, D7",Paimpol,48.771071642219,-3.0400148040401,1.99,"Boutique non alimentaire,Station de gonflage,Carburant additivé,Piste poids lourds,Services réparation / entretien,DAB (Distributeur automatique de billets)",Côtes-d'Armor,22,Bretagne,53
62380001,62380,57 Avenue Bernard Chochoy,Lumbres,50.70998,2.12748,,"Toilettes publiques,Boutique non alimentaire,Station de gonflage,Carburant additivé,Piste poids lourds",Pas-de-Calais,62,Hauts-de-France,32
44780002,44780,la gargouille,Missillac,47.482822997313995,-2.1613944821039,,"Laverie,Relais colis,Lavage automatique,Lavage manuel,Vente de gaz domestique (Butane, Propane),Automate CB 24/24",Loire-Atlantique,44,Pays de la Loire,52
88250003,88250,2 bis route de Cornimont,Rochesson,48.004,6.834,2.039,"Boutique alimentaire,Restauration à emporter,Station de gonflage,Aire de camping-cars,Lavage automatique,Lavage manuel,Automate CB 24/24",Vosges,88,Grand Est,44
68200019,68200,238 BIS RUE DE BELFORT DORNACH,Mulhouse,47.73842999309301,7.2941953372956,1.99,,Haut-Rhin,68,Grand Est,44
8200005,8200,14 Avenue Pasteur,Sedan,49.699,4.928,,"Toilettes publiques,Boutique alimentaire,Boutique non alimentaire,Vente de fioul domestique,Location de véhicule,Piste poids lourds,Vente de gaz domestique (Butane, Propane),Vente d'additifs carburants,Automate CB 24/24,DAB (Distributeur automatique de billets)",Ardennes,8,Grand Est,44
50800004,50800,29 Le Bourg,La Lande-d'Airou,48.816,-1.29,,Lavage automatique,Manche,50,Normandie,28
11160003,11160,Avenue Ernest Ferroul,Peyriac-Minervois,43.284583541238,2.5747807541329997,2.005,"Laverie,Automate CB 24/24",Aude,11,Occitanie,76
